City_ID,City,Lat,Lng,Max Temp,Humidity,Cloudiness,Wind Speed,Country,Date
0,butaritari,3.0707,172.7902,27.33,77,97,10.44,KI,1675018021
1,busselton,-33.65,115.3333,17.58,71,45,5.32,AU,1675018022
2,udupi,13.35,74.75,25.58,84,75,1.92,IN,1675018026
3,craig,40.5153,-107.5464,-2.01,79,100,2.06,US,1675018029
4,barrow,71.2906,-156.7887,-18.99,78,100,4.12,US,1675018035
5,severo-kurilsk,50.6789,156.125,-1.99,95,100,15.07,RU,1675018038
6,kapaa,22.0752,-159.319,22.18,67,75,8.75,US,1675017938
7,jacobina,-11.1806,-40.5183,31.97,27,0,4.49,BR,1675018043
8,punta arenas,-53.15,-70.9167,17.06,42,0,9.77,CL,1675018044
9,quatre cocos,-20.2078,57.7625,26.16,82,100,1.19,MU,1675018046
10,sao filipe,14.8961,-24.4956,21.88,71,49,9.07,CV,1675018049
11,ushuaia,-54.8,-68.3,11.81,66,75,8.23,AR,1675018050
12,lamu,-2.2717,40.902,26.12,85,100,6.57,KE,1675018052
13,oriximina,-1.7656,-55.8661,28.85,66,77,0.46,BR,1675018054
14,bethel,41.3712,-73.414,10.3,62,100,2.57,US,1675017910
15,darlowo,54.421,16.4107,3.19,91,100,11.15,PL,1675017762
16,cayenne,4.9333,-52.3333,27.02,74,100,7.2,GF,1675018016
17,airai,-8.9266,125.4092,16.08,92,100,0.52,TL,1675018063
18,borba,-4.3878,-59.5939,26.42,75,100,0.87,BR,1675018064
19,mountain home,43.133,-115.6912,-5.48,75,100,2.06,US,1675018064
20,hobart,-42.8794,147.3294,15.92,81,100,0.51,AU,1675018065
21,natal,-5.795,-35.2094,31.36,61,40,6.69,BR,1675018066
22,kathmandu,27.7167,85.3167,11.58,75,20,2.06,NP,1675017628
23,salalah,17.0151,54.0924,21.05,28,0,4.12,OM,1675017811
24,nome,64.5011,-165.4064,1.04,86,100,8.75,US,1675018067
25,henties bay,-22.116,14.2845,17.9,82,52,5.25,NA,1675018068
26,bambous virieux,-20.3428,57.7575,26.23,89,40,2.06,MU,1675018069
27,huntingdon,52.3305,-0.1865,7.24,86,92,1.79,GB,1675018069
28,margate,51.3813,1.3862,7.17,90,100,2.24,GB,1675018071
29,synya,65.3718,58.0387,-11.2,92,100,5.93,RU,1675018071
30,guerrero negro,27.9769,-114.0611,16.38,57,1,2.58,MX,1675018072
31,luderitz,-26.6481,15.1594,16.39,86,0,6.3,NA,1675018072
32,flinders,-34.5833,150.8552,23.99,85,100,1.79,AU,1675018073
33,bluff,-46.6,168.3333,15.42,76,100,3.69,NZ,1675018074
34,kemise,10.7167,39.8667,20.09,61,61,1.97,ET,1675018074
35,provideniya,64.3833,-173.3,-4.6,91,74,8.24,RU,1675018075
36,litovko,49.2361,135.1742,-34.5,100,92,0.73,RU,1675018076
37,atuona,-9.8,-139.0333,25.94,76,70,8.4,PF,1675018076
38,georgetown,5.4112,100.3354,26.96,83,20,1.03,MY,1675017182
39,rikitea,-23.1203,-134.9692,25.88,74,88,4.98,PF,1675018077
40,pushkino,56.0172,37.8667,-2.84,96,100,2.34,RU,1675018078
41,madang,-5.2246,145.7966,24.35,91,84,1.97,PG,1675018078
42,puerto carreno,6.189,-67.4859,32.99,40,20,5.66,CO,1675018079
43,hilo,19.7297,-155.09,21.27,88,100,2.06,US,1675018080
44,mount gambier,-37.8333,140.7667,11.31,92,6,2.21,AU,1675018080
45,luoyang,34.6836,112.4536,1.95,24,0,1.2,CN,1675018081
46,torbay,47.6666,-52.7314,2.54,65,75,15.43,CA,1675017804
47,hithadhoo,-0.6,73.0833,27.63,74,100,4.12,MV,1675018084
48,dunedin,-45.8742,170.5036,16.56,73,23,1.73,NZ,1675018007
49,gillette,44.2911,-105.5022,-17.72,77,100,8.23,US,1675017848
50,hermanus,-34.4187,19.2345,19.33,64,100,10.15,ZA,1675017560
51,canoas,-29.9178,-51.1836,30.98,59,40,6.17,BR,1675018101
52,ponta do sol,32.6667,-17.1,14.51,53,60,3.07,PT,1675017861
53,mataura,-46.1927,168.8643,13.27,59,100,0.38,NZ,1675018107
54,bilibino,68.0546,166.4372,-16.69,92,100,2.32,RU,1675018109
55,albany,42.6001,-73.9662,6.82,67,100,1.34,US,1675018110
56,khatanga,71.9667,102.5,-39.96,100,90,1.49,RU,1675018122
57,steamboat springs,40.485,-106.8317,-2.78,88,100,0.45,US,1675018123
58,saskylakh,71.9167,114.0833,-35.16,98,99,1.95,RU,1675018124
59,jamestown,42.097,-79.2353,4.77,96,100,6.17,US,1675018124
60,seoul,37.5683,126.9778,-1.34,64,0,1.03,KR,1675017841
61,neuquen,-38.9516,-68.0591,36.94,19,0,8.23,AR,1675018126
62,denpasar,-8.65,115.2167,25.81,100,75,1.03,ID,1675017691
63,methoni,36.8197,21.7049,11.23,73,45,3.61,GR,1675018127
64,sinegorye,62.0788,150.477,-25.2,100,100,1.41,RU,1675018127
65,cidreira,-30.1811,-50.2056,26.32,73,5,6.48,BR,1675018128
66,talnakh,69.4865,88.3972,-24.33,99,100,0.16,RU,1675018129
67,chickasha,35.0526,-97.9364,-5.91,79,100,8.75,US,1675018130
68,chicama,-7.8447,-79.1469,22.3,53,28,5.18,PE,1675018130
69,kavieng,-2.5744,150.7967,28.17,74,51,3.87,PG,1675018131
70,port alfred,-33.5906,26.891,19.54,65,100,0.89,ZA,1675018132
71,port keats,-14.25,129.55,25.14,88,100,1.9,AU,1675018133
72,kaitangata,-46.2817,169.8464,13.48,67,100,2.03,NZ,1675018133
73,iqaluit,63.7506,-68.5145,-35.73,73,75,1.03,CA,1675018134
74,benalla,-36.55,145.9833,18.25,88,100,2.04,AU,1675018134
75,carnarvon,-24.8667,113.6333,22.51,83,0,4.21,AU,1675018135
76,nelson bay,-32.7167,152.15,22.83,97,100,1.79,AU,1675018136
77,cairns,-16.9167,145.7667,25.04,100,75,4.63,AU,1675018007
78,beringovskiy,63.05,179.3167,-4.85,96,100,6.88,RU,1675018137
79,vaini,-21.2,-175.2,24.09,100,40,0.51,TO,1675018137
80,port elizabeth,-33.918,25.5701,18.16,69,20,4.12,ZA,1675018063
81,sechura,-5.5569,-80.8222,29.14,52,6,6.57,PE,1675018138
82,veraval,20.9,70.3667,18.3,45,0,6.37,IN,1675018139
83,arcachon,44.5875,-1.0519,5.23,70,100,0.0,FR,1675018140
84,tura,25.5198,90.2201,17.15,58,0,1.56,IN,1675018141
85,oranjemund,-28.55,16.4333,16.7,88,0,1.52,NA,1675018141
86,andilamena,-17.0167,48.5833,20.3,92,96,1.82,MG,1675018142
87,arteaga,18.4667,-102.4167,29.86,17,0,1.37,MX,1675018144
88,la ronge,55.1001,-105.2842,-25.86,58,75,7.72,CA,1675018147
89,zapolyarnyy,69.4154,30.8136,-4.4,93,100,8.41,RU,1675018150
90,qaqortoq,60.7167,-46.0333,-9.34,68,100,4.13,GL,1675018178
91,imeni poliny osipenko,52.4201,136.4853,-37.16,100,99,1.16,RU,1675018179
92,chiang klang,19.2938,100.8617,15.25,73,0,0.58,TH,1675018181
93,lincoln,40.8,-96.667,-12.68,68,100,7.2,US,1675018085
94,camacha,33.0833,-16.3333,11.68,76,40,2.06,PT,1675018004
95,saint george,37.1041,-113.5841,9.68,42,0,1.34,US,1675018183
96,otavi,-19.65,17.3333,19.47,80,100,3.62,NA,1675018184
97,lata,40.1629,-8.3327,11.56,66,6,2.43,PT,1675018185
98,nanortalik,60.1432,-45.2371,-4.85,74,100,3.2,GL,1675018185
99,saint-philippe,-21.3585,55.7679,27.77,88,100,2.35,RE,1675018186
100,gizo,-8.103,156.8419,27.6,76,100,3.57,SB,1675018187
101,elat,29.5581,34.9482,19.91,42,68,4.12,IL,1675018187
102,berdigestyakh,62.0989,126.6992,-48.49,100,88,0.75,RU,1675018199
103,rolla,37.9514,-91.7713,-3.81,94,100,4.63,US,1675017989
104,chenzhou,25.8,113.0333,4.92,45,0,1.07,CN,1675018200
105,hervey bay,-25.2986,152.8535,24.11,75,100,1.17,AU,1675018206
106,hasaki,35.7333,140.8333,0.12,79,48,3.26,JP,1675018208
107,cape town,-33.9258,18.4232,22.99,52,0,8.23,ZA,1675017929
108,sangar,63.9242,127.4739,-46.43,99,49,1.17,RU,1675018210
109,iwaki,37.05,140.8833,-1.66,84,86,3.56,JP,1675018218
110,ostrovnoy,68.0531,39.5131,-5.03,90,100,9.17,RU,1675018220
111,faanui,-16.4833,-151.75,27.0,76,18,5.61,PF,1675018221
112,angoram,-4.0625,144.0661,24.2,92,79,0.49,PG,1675018224
113,east london,-33.0153,27.9116,18.52,72,75,2.06,ZA,1675018230
114,muisne,0.6,-80.0333,26.98,78,58,6.04,EC,1675018232
115,baghmara,23.795,86.2085,16.67,34,0,1.71,IN,1675018234
116,thompson,55.7435,-97.8558,-28.91,69,75,4.63,CA,1675018236
117,barcelos,41.5388,-8.6151,9.36,72,6,1.27,PT,1675018156
118,kodiak,57.79,-152.4072,2.73,100,100,0.0,US,1675018241
119,port lincoln,-34.7333,135.8667,15.49,80,16,4.37,AU,1675018243
120,viedma,-40.8135,-62.9967,38.83,12,0,7.57,AR,1675018244
121,tasiilaq,65.6145,-37.6368,-15.25,83,24,2.75,GL,1675018244
122,namibe,-15.1961,12.1522,23.54,85,82,3.41,AO,1675018245
123,qaanaaq,77.484,-69.3632,-22.14,81,100,1.39,GL,1675018246
124,castro,-24.7911,-50.0119,28.44,53,5,2.93,BR,1675018246
125,pochutla,15.7432,-96.4661,31.57,39,0,3.98,MX,1675018247
126,nikolskoye,59.7035,30.7861,0.94,90,66,4.51,RU,1675018248
127,egvekinot,66.3167,-179.1667,-10.01,84,100,5.48,RU,1675018249
128,karlshamn,56.1706,14.8619,4.27,88,100,7.82,SE,1675018249
129,pisco,-13.7,-76.2167,26.03,65,20,4.12,PE,1675018116
130,katherine,-14.4667,132.2667,25.18,94,40,0.0,AU,1675018251
131,cerinza,5.9557,-72.9478,20.58,27,10,0.97,CO,1675018252
132,adrar,20.5022,-10.0711,17.31,35,41,4.07,MR,1675018253
133,yarada,17.65,83.2667,23.18,94,18,2.06,IN,1675018254
134,tuktoyaktuk,69.4541,-133.0374,-24.0,77,75,1.03,CA,1675018254
135,bredasdorp,-34.5322,20.0403,18.99,58,100,8.21,ZA,1675018255
136,kavaratti,10.5669,72.642,26.87,68,18,4.54,IN,1675018256
137,lavrentiya,65.5833,-171.0,-8.02,96,92,5.2,RU,1675018257
138,itarema,-2.9248,-39.9167,28.85,62,7,6.67,BR,1675018257
139,vila velha,-20.3297,-40.2925,29.97,66,40,8.23,BR,1675018258
140,waipawa,-41.4122,175.5153,17.82,93,100,1.9,NZ,1675018259
141,bayji,34.9311,43.487,12.43,56,66,3.34,IQ,1675018260
142,mar del plata,-38.0023,-57.5575,27.68,71,0,6.69,AR,1675018195
143,dikson,73.5069,80.5464,-34.15,97,67,1.73,RU,1675018261
144,sawtell,-30.3833,153.1,25.01,83,75,3.6,AU,1675018262
145,meiningen,50.5679,10.4152,-2.36,90,100,1.5,DE,1675018059
146,zhigansk,66.7697,123.3711,-38.78,96,97,4.73,RU,1675018265
147,port hedland,-20.3167,118.5667,28.03,83,75,1.54,AU,1675018268
148,xinzhou,38.4092,112.7333,-5.5,43,0,1.06,CN,1675018272
149,college,64.8569,-147.8028,-5.03,87,100,2.06,US,1675018279
150,esperance,-33.8667,121.9,16.03,73,2,4.16,AU,1675018281
151,vila franca do campo,37.7167,-25.4333,14.23,74,38,4.5,PT,1675018283
152,longyearbyen,78.2186,15.6401,-4.09,80,40,10.29,SJ,1675018284
153,banda aceh,5.5577,95.3222,24.94,88,97,3.77,ID,1675018287
154,christchurch,-43.5333,172.6333,18.84,93,100,5.14,NZ,1675018288
155,yellowknife,62.456,-114.3525,-31.71,75,20,2.06,CA,1675018291
156,fortuna,40.5982,-124.1573,9.4,83,0,0.45,US,1675018293
157,troutdale,45.5393,-122.3873,2.76,38,0,8.75,US,1675018249
158,puerto leguizamo,-0.1934,-74.7819,33.89,31,39,2.01,CO,1675018297
159,souillac,-20.5167,57.5167,26.21,89,40,2.06,MU,1675018301
160,safaga,26.7292,33.9365,21.91,77,7,2.26,EG,1675018303
161,san andres,12.5847,-81.7006,30.01,66,20,7.2,CO,1675018304
162,nouadhibou,20.931,-17.0347,19.99,56,13,7.2,MR,1675018304
163,kimberley,-28.7323,24.7623,21.83,78,20,0.51,ZA,1675018317
164,puerto ayora,-0.7393,-90.3518,30.98,89,99,3.13,EC,1675018318
165,along,28.1667,94.7667,12.95,65,0,0.78,IN,1675018318
166,asau,46.4333,26.4,-3.49,96,99,0.55,RO,1675018319
167,pallisa,1.145,33.7094,22.87,48,44,2.71,UG,1675018320
168,mahebourg,-20.4081,57.7,26.25,89,40,2.06,MU,1675018320
169,khani,41.9563,42.9566,2.76,97,100,0.79,GE,1675018321
170,diffa,13.3154,12.6113,28.85,13,85,3.35,NE,1675018322
171,konstantinovka,49.6167,127.9833,-34.54,100,55,0.89,RU,1675018323
172,half moon bay,37.4636,-122.4286,12.27,68,100,7.2,US,1675018325
173,killybegs,54.6333,-8.45,7.84,63,99,10.13,IE,1675018331
174,cooma,-36.2333,149.1333,16.27,99,100,0.64,AU,1675018332
175,port-gentil,-0.7193,8.7815,27.98,78,20,1.54,GA,1675018335
176,udachnyy,66.4167,112.4,-37.53,73,93,1.12,RU,1675018336
177,new norfolk,-42.7826,147.0587,15.72,67,73,0.58,AU,1675018337
178,jacareacanga,-6.2222,-57.7528,26.43,89,98,0.57,BR,1675018340
179,kangaatsiaq,68.3065,-53.4641,-12.7,71,100,5.37,GL,1675018341
180,alghero,40.5589,8.3181,9.05,71,0,4.12,IT,1675018344
181,westport,41.1415,-73.3579,10.81,64,100,1.34,US,1675018345
182,ouesso,1.6136,16.0517,25.55,63,100,0.57,CG,1675018346
183,srednekolymsk,67.45,153.6833,-29.7,97,100,2.2,RU,1675018348
184,sinnamary,5.3833,-52.95,26.5,74,51,4.43,GF,1675018349
185,prilep,41.3464,21.5544,-0.89,75,21,1.29,MK,1675018133
186,upernavik,72.7868,-56.1549,-21.02,76,50,4.17,GL,1675018355
187,zhengjiatun,43.5064,123.5064,-12.31,77,0,2.84,CN,1675018357
188,shingu,33.7333,135.9833,1.39,79,8,3.22,JP,1675018358
189,valdivia,-39.8142,-73.2459,28.05,47,1,2.29,CL,1675018359
190,clyde river,70.4692,-68.5914,-28.68,91,100,2.0,CA,1675018361
191,lebu,-37.6167,-73.65,18.79,79,0,6.97,CL,1675018212
192,ribeira grande,38.5167,-28.7,14.87,77,40,3.09,PT,1675018364
193,yar-sale,66.8333,70.8333,-26.97,99,100,2.68,RU,1675018365
194,antalaha,-14.9003,50.2788,25.18,93,88,1.92,MG,1675018366
195,tuatapere,-46.1333,167.6833,15.28,61,100,1.06,NZ,1675018366
196,bengkulu,-3.8004,102.2655,23.7,92,100,2.73,ID,1675018367
197,hofn,64.2539,-15.2082,0.74,68,100,7.27,IS,1675018368
198,pangnirtung,66.1451,-65.7125,-35.0,61,20,0.0,CA,1675018368
199,georgiyevka,43.0369,74.7114,-9.98,85,100,2.0,KZ,1675018369
200,hami,42.8,93.45,-7.21,34,22,0.97,CN,1675018370
201,chuy,-33.6971,-53.4616,25.64,63,28,6.82,UY,1675018370
202,suifenhe,44.4,131.1667,-21.92,97,33,1.75,CN,1675018371
203,lompoc,34.6391,-120.4579,12.56,78,100,6.71,US,1675018372
204,kamenka,51.3223,42.7678,-4.63,96,100,3.71,RU,1675018373
205,marsa matruh,31.3525,27.2453,16.11,55,20,1.54,EG,1675018373
206,japura,-0.3167,102.35,22.19,99,100,1.22,ID,1675018374
207,wenling,28.3669,121.36,3.98,57,0,1.71,CN,1675018374
208,ureki,41.9956,41.7786,6.98,86,100,5.58,GE,1675018375
209,stokmarknes,68.5646,14.9108,0.98,74,0,3.6,NO,1675018376
210,tiksi,71.6872,128.8694,-37.23,97,95,3.06,RU,1675018377
211,kikwit,-5.041,18.8162,22.36,90,100,1.14,CD,1675018378
212,naze,28.3667,129.4833,10.51,56,95,6.5,JP,1675018378
213,beloha,-25.1667,45.05,23.66,91,16,2.59,MG,1675018379
214,maxixe,-23.8597,35.3472,27.9,74,20,4.63,MZ,1675018380
215,biloela,-24.4167,150.5,20.44,93,97,1.37,AU,1675018380
216,tautira,-17.7333,-149.15,26.62,76,6,4.43,PF,1675018381
217,aktash,50.3,87.7333,-20.53,83,86,1.61,RU,1675018384
218,blackwater,-23.5833,148.8833,21.77,83,100,2.93,AU,1675018388
219,rawson,-43.3002,-65.1023,28.48,37,0,6.82,AR,1675018393
220,jawa,31.8525,35.9393,12.17,50,40,2.06,JO,1675018397
221,kilimatinde,-5.85,34.95,22.06,57,77,0.64,TZ,1675018400
222,broome,42.2506,-75.833,7.23,75,100,2.68,US,1675018402
223,biak,-0.9131,122.8766,24.3,82,100,1.24,ID,1675018404
224,padang,-0.9492,100.3543,24.03,86,100,2.64,ID,1675018405
225,lasa,46.6166,10.7002,2.49,69,100,2.01,IT,1675018407
226,rio gallegos,-51.6226,-69.2181,20.03,42,75,6.17,AR,1675018409
227,tukrah,32.5341,20.5791,12.87,54,9,4.56,LY,1675018411
228,tomohon,1.3346,124.8392,18.52,93,85,1.19,ID,1675018416
229,laguna,38.421,-121.4238,9.1,82,100,3.6,US,1675018418
230,chara,56.9064,118.2631,-25.52,74,76,0.96,RU,1675018419
231,port augusta,-32.5,137.7667,21.22,82,100,5.75,AU,1675018420
232,verkhnyaya inta,65.9811,60.3094,-10.18,85,100,5.62,RU,1675018421
233,coquimbo,-29.9533,-71.3436,18.85,72,75,5.14,CL,1675018397
234,komsomolskiy,40.4272,71.7189,-0.6,74,100,2.06,UZ,1675018422
235,mehamn,71.0357,27.8492,0.97,69,40,5.14,NO,1675018423
236,ponta delgada,37.7333,-25.6667,14.4,72,20,5.14,PT,1675018424
237,fairbanks,64.8378,-147.7164,-5.02,88,40,2.06,US,1675017956
238,miri,4.4148,114.0089,25.03,92,100,2.41,MY,1675018426
239,saint-joseph,-21.3667,55.6167,27.21,87,100,1.16,RE,1675017929
240,agirish,61.9247,63.0231,-13.34,90,100,2.98,RU,1675018427
241,sisauli,29.4167,77.4667,13.22,77,100,1.23,IN,1675018428
242,atar,20.5169,-13.0499,19.33,34,99,4.76,MR,1675018428
243,vanimo,-2.6741,141.3028,25.59,87,100,1.36,PG,1675018429
244,avarua,-21.2078,-159.775,27.03,83,40,3.09,CK,1675018430
245,nayoro,44.3506,142.4578,-18.54,100,40,0.82,JP,1675018430
246,gladstone,-23.85,151.25,22.1,88,100,2.06,AU,1675018431
247,cabedelo,-6.9811,-34.8339,31.37,68,98,6.01,BR,1675018431
248,korla,41.7597,86.1469,-8.67,79,3,0.47,CN,1675018432
249,muravlenko,63.7898,74.523,-30.98,100,20,1.87,RU,1675018433
250,santa rosa,14.3122,121.1114,23.99,83,100,5.54,PH,1675018433
251,pevek,69.7008,170.3133,-19.08,97,100,1.71,RU,1675018434
252,lalibela,12.0333,39.0333,16.94,59,0,3.17,ET,1675018435
253,salou,41.0766,1.1416,7.36,58,20,2.06,ES,1675018435
254,pacific grove,36.6177,-121.9166,11.55,85,75,4.63,US,1675018436
255,yeppoon,-23.1333,150.7333,21.88,82,100,1.61,AU,1675018436
256,arraial do cabo,-22.9661,-42.0278,26.92,78,40,3.09,BR,1675018437
257,marzuq,14.4,46.4667,16.08,56,10,0.56,YE,1675018438
258,biograd na moru,43.9433,15.4519,4.86,70,1,2.65,HR,1675018438
259,alofi,-19.0595,-169.9187,23.94,94,64,1.03,NU,1675018440
260,salta,-24.7859,-65.4117,26.33,81,75,3.13,AR,1675018441
261,narsaq,60.9167,-46.05,-10.13,67,100,3.81,GL,1675018442
262,puerto escondido,15.85,-97.0667,29.27,52,1,3.44,MX,1675018446
263,eureka,40.8021,-124.1637,10.41,88,1,2.68,US,1675018173
264,olafsvik,64.8945,-23.7142,-0.77,72,52,7.46,IS,1675018451
265,northam,51.0333,-4.2167,8.12,95,13,6.37,GB,1675018455
266,juneau,58.3019,-134.4197,-0.5,97,20,0.0,US,1675018375
267,kahului,20.8947,-156.47,23.25,88,100,1.79,US,1675018462
268,victoria,22.2855,114.1577,13.51,46,7,3.58,HK,1675018368
269,skjervoy,70.0311,20.9714,-3.0,68,100,5.59,NO,1675018281
270,laiyang,36.9758,120.7136,-5.76,77,2,0.79,CN,1675018471
271,touros,-5.1989,-35.4608,28.74,60,72,7.63,BR,1675018473
272,berlevag,70.8578,29.0864,1.0,93,100,7.72,NO,1675018477
273,oktyabrskiy,54.4815,53.471,-14.56,97,100,2.74,RU,1675018480
274,saint-pierre,-21.3393,55.4781,27.82,69,0,0.0,RE,1675018296
275,dukat,62.55,155.55,-18.33,97,100,5.25,RU,1675018481
276,mandalgovi,45.7625,106.2708,-13.49,65,0,1.81,MN,1675018482
277,vestmannaeyjar,63.4427,-20.2734,2.55,80,0,5.14,IS,1675018483
278,pandan,14.0453,124.1694,24.67,90,100,9.33,PH,1675018483
279,yulara,-25.2406,130.9889,21.08,76,34,4.3,AU,1675018464
280,cape canaveral,28.4058,-80.6048,27.25,68,0,6.17,US,1675018485
281,shihezi,44.3,86.0333,-18.14,86,42,1.79,CN,1675018486
282,constitucion,-35.3333,-72.4167,21.76,63,39,6.01,CL,1675018487
283,acapulco,16.8634,-99.8901,29.54,49,0,3.16,MX,1675018487
284,janauba,-15.8025,-43.3089,26.21,73,100,2.62,BR,1675018488
285,areosa,41.7178,-8.8571,8.36,64,6,1.37,PT,1675018489
286,nioro,13.35,-15.75,28.05,9,100,2.59,GM,1675018489
287,solnechnyy,50.7214,136.6319,-30.33,95,35,1.54,RU,1675018490
288,kabompo,-13.5927,24.2008,16.98,97,47,1.79,ZM,1675018491
289,havoysund,70.9963,24.6622,-0.87,92,100,2.23,NO,1675018491
290,harper,4.375,-7.7169,26.23,80,98,2.81,LR,1675018492
291,lisakovsk,52.5369,62.4936,-19.83,100,65,2.8,KZ,1675018492
292,belmonte,-15.8631,-38.8828,27.88,60,17,3.5,BR,1675018493
293,san quintin,30.4833,-115.95,13.82,69,99,2.22,MX,1675018494
294,bambanglipuro,-7.95,110.2833,24.4,91,100,1.6,ID,1675018495
295,coracora,-15.0333,-73.7833,13.1,75,100,3.11,PE,1675018495
296,shirokiy,49.758,129.523,-33.95,100,86,1.59,RU,1675018496
297,sur,22.5667,59.5289,19.22,56,0,4.85,OM,1675018497
298,le port,-20.9373,55.2919,28.0,84,100,3.07,RE,1675018498
299,zaraza,9.3503,-65.3245,33.94,28,100,3.82,VE,1675018498
300,bintulu,3.1667,113.0333,24.23,100,40,0.0,MY,1675018499
301,sioux lookout,50.1001,-91.917,-21.96,71,75,3.09,CA,1675018379
302,skowhegan,44.7651,-69.7192,3.1,89,100,0.96,US,1675018500
303,ixtapa,20.7,-105.2,31.67,34,2,3.09,MX,1675018501
304,khao yoi,13.2403,99.8243,19.7,50,50,2.82,TH,1675018504
305,fenelon falls,44.5334,-78.7496,-2.88,92,100,3.54,CA,1675018505
306,washington,47.5001,-120.5015,-2.59,48,6,1.59,US,1675018218
307,tual,-5.6667,132.75,27.91,77,100,3.31,ID,1675018513
308,vityazevo,44.9931,37.2719,6.23,100,75,0.0,RU,1675018515
309,fort nelson,58.8053,-122.7002,-20.23,77,100,1.54,CA,1675018522
310,garbolovo,60.3413,30.4955,-0.01,93,59,4.58,RU,1675018524
311,anadyr,64.75,177.4833,-2.72,93,75,13.0,RU,1675018525
312,ukiah,39.1502,-123.2078,10.65,65,0,0.89,US,1675018527
313,chiplun,17.5333,73.5167,20.27,96,35,0.7,IN,1675018528
314,cap malheureux,-19.9842,57.6142,26.37,84,100,1.01,MU,1675018531
315,karratha,-20.7377,116.8463,29.94,52,82,2.79,AU,1675018534
316,acarau,-2.8856,-40.12,28.74,64,31,6.58,BR,1675018539
317,shellbrook,53.2168,-106.4011,-25.43,85,99,5.25,CA,1675018301
318,chokurdakh,70.6333,147.9167,-38.93,100,76,1.1,RU,1675018543
319,norman wells,65.282,-126.8329,-8.98,86,100,5.14,CA,1675018544
320,raudeberg,61.9875,5.1352,5.37,47,100,15.3,NO,1675018545
321,omsukchan,62.5333,155.8,-17.92,98,100,5.51,RU,1675018553
322,sibu,2.3,111.8167,24.17,94,40,0.0,MY,1675018554
323,afyonkarahisar,38.75,30.6667,0.58,91,54,1.94,TR,1675018555
324,college station,30.628,-96.3344,20.93,94,100,5.14,US,1675018493
325,ust-nera,64.5667,143.2,-38.45,99,81,0.69,RU,1675018556
326,cerqueira cesar,-23.0356,-49.1661,28.33,52,83,1.62,BR,1675018557
327,los algarrobos,8.5,-82.4333,32.23,38,20,8.75,PA,1675018558
328,cuauhtemoc,28.4167,-106.8667,15.24,23,0,9.33,MX,1675018563
329,halvad,23.0167,71.1833,18.01,26,0,3.67,IN,1675018571
330,huarmey,-10.0681,-78.1522,24.46,72,78,3.99,PE,1675018572
331,leningradskiy,69.3833,178.4167,-17.11,86,92,1.32,RU,1675018575
332,ojinaga,29.5667,-104.4167,23.1,37,0,2.57,MX,1675018580
333,isangel,-19.55,169.2667,26.2,84,100,1.15,VU,1675018368
334,kungurtug,50.5994,97.5228,-22.18,93,100,1.12,RU,1675018584
335,kununurra,-15.7667,128.7333,23.99,100,100,2.06,AU,1675018588
336,baykit,61.67,96.37,-18.65,100,97,0.5,RU,1675018592
337,ayorou,14.7308,0.9174,23.24,5,100,3.44,NE,1675018594
338,iturama,-19.7281,-50.1956,28.98,60,87,2.1,BR,1675018600
339,varzea da palma,-17.5981,-44.7308,28.75,60,49,1.44,BR,1675018601
340,petropavlovsk-kamchatskiy,53.0452,158.6483,-4.67,63,40,5.0,RU,1675018602
341,bend,44.0582,-121.3153,-8.07,70,0,6.69,US,1675018603
342,san rafael,-34.6177,-68.3301,30.11,38,98,8.88,AR,1675018604
343,radolfzell,47.7333,8.9667,0.31,97,100,0.98,DE,1675018604
344,jiaocheng,24.6774,116.1389,3.58,53,0,1.45,CN,1675018605
345,vila,42.0304,-8.1588,2.06,69,8,1.63,PT,1675018606
346,bubaque,11.2833,-15.8333,24.92,62,97,7.01,GW,1675018607
347,saint anthony,45.0205,-93.218,-14.03,63,40,3.09,US,1675018607
348,yokadouma,3.5167,15.05,26.64,45,93,1.19,CM,1675018608
349,glendive,47.1053,-104.7125,-15.84,71,100,10.8,US,1675018609
350,kazanskoye,55.6448,69.235,-15.15,95,11,3.73,RU,1675018610
351,port hueneme,34.1478,-119.1951,13.87,72,100,4.12,US,1675018610
352,cabo san lucas,22.8909,-109.9124,24.23,57,0,0.45,MX,1675018423
353,east wenatchee bench,47.4257,-120.2812,-2.24,45,0,2.24,US,1675018611
354,nova olimpia,-14.7972,-57.2881,28.96,64,78,2.28,BR,1675018612
355,saldanha,-33.0117,17.9442,23.03,73,0,6.2,ZA,1675018613
356,nanakuli,21.3906,-158.1547,21.73,68,100,4.63,US,1675018613
357,klaksvik,62.2266,-6.589,4.51,77,49,16.55,FO,1675018614
358,richards bay,-28.783,32.0377,20.79,77,100,3.5,ZA,1675018615
359,buzmeyin,38.0507,58.2056,3.85,60,75,3.09,TM,1675018615
360,yakeshi,49.2833,120.7333,-32.2,100,100,1.01,CN,1675018616
361,maniitsoq,65.4167,-52.9,-5.27,85,100,7.78,GL,1675018617
362,nizwa,22.9333,57.5333,18.05,46,0,0.08,OM,1675018617
363,beitbridge,-22.2167,30.0,26.74,60,6,13.67,ZW,1675018618
364,rovenki,48.0833,39.3776,-0.22,92,100,1.91,UA,1675018618
365,verdun,49.25,5.3333,1.56,74,100,2.57,FR,1675018619
366,freising,48.4035,11.7488,-0.51,81,100,4.12,DE,1675018620
367,hualmay,-11.0964,-77.6139,24.95,69,72,4.27,PE,1675018620
368,bud,39.447,-86.1758,7.08,95,100,4.6,US,1675018621
369,vuktyl,63.8567,57.3094,-12.16,92,100,5.41,RU,1675018621
370,zhanakorgan,43.9098,67.2495,-1.26,49,94,1.88,KZ,1675018622
371,zhanaozen,43.3,52.8,-2.04,47,6,5.04,KZ,1675018623
372,mandera,3.9366,41.867,30.3,29,98,4.26,KE,1675018623
373,geraldton,-28.7667,114.6,26.23,57,20,3.09,AU,1675018624
374,havre-saint-pierre,50.2334,-63.5986,-14.0,47,0,6.17,CA,1675018625
375,hobyo,5.3505,48.5268,24.57,78,46,8.85,SO,1675018625
376,grindavik,63.8424,-22.4338,1.26,86,40,5.66,IS,1675018626
377,mao,39.8885,4.2658,10.31,76,40,7.72,ES,1675018626
378,bandarbeyla,9.4942,50.8122,23.93,67,19,8.8,SO,1675018627
379,broken hill,-31.95,141.4333,19.87,86,100,5.59,AU,1675018628
380,banfora,10.6333,-4.7667,29.16,12,85,0.79,BF,1675018628
381,bereda,43.2686,-7.5406,2.86,96,75,2.89,ES,1675018629
382,borodino,55.9106,94.8983,-8.85,91,100,5.27,RU,1675018629
383,ketchikan,55.3422,-131.6461,-0.01,36,73,1.65,US,1675018591
384,ballina,-28.8667,153.5667,23.34,97,100,3.18,AU,1675018440
385,ulaangom,49.9811,92.0667,-28.19,98,100,0.81,MN,1675018631
386,fuxin,42.0156,121.6589,-8.32,54,0,1.61,CN,1675018631
387,teahupoo,-17.8333,-149.2667,25.98,76,4,4.68,PF,1675018632
388,riyadh,24.6877,46.7219,17.08,42,36,3.23,SA,1675018517
389,malard,35.6659,50.9767,6.1,75,75,3.09,IR,1675018633
390,springfield,37.2153,-93.2982,-2.22,92,100,1.34,US,1675018418
391,matagami,49.7502,-77.6328,-16.94,60,0,2.57,CA,1675018634
392,usinsk,65.9939,57.5281,-10.58,94,100,9.11,RU,1675018635
393,aketi,2.7388,23.7833,25.06,58,42,1.06,CD,1675018636
394,turukhansk,65.8167,87.9833,-22.2,96,95,2.72,RU,1675018636
395,sumbe,-11.2061,13.8437,26.51,81,100,2.11,AO,1675018637
396,aguimes,27.9054,-15.4461,14.35,72,75,4.12,ES,1675018638
397,tessalit,20.1986,1.0114,16.32,9,13,4.38,ML,1675018638
398,brasilia de minas,-16.2064,-44.4333,25.96,73,70,1.48,BR,1675018639
399,mataram,-8.5833,116.1167,24.45,91,100,2.59,ID,1675018639
400,zaozerne,45.1582,33.2787,2.71,97,100,8.14,UA,1675018640
401,matamoros,25.5333,-103.25,23.95,32,0,2.56,MX,1675018641
402,lepe,37.2548,-7.2043,11.17,54,0,3.65,ES,1675018614
403,tokur,53.1333,132.9,-39.59,100,75,1.14,RU,1675018642
404,paralimni,35.0375,33.9833,13.97,74,2,0.89,CY,1675018642
405,waingapu,-9.6567,120.2641,25.98,85,100,2.84,ID,1675018643
406,ancud,-41.8697,-73.8203,18.85,77,32,4.71,CL,1675018574
407,ronneby,56.21,15.276,4.28,93,75,5.14,SE,1675018644
408,uyuni,-20.4597,-66.825,17.26,36,100,5.97,BO,1675018645
409,tiruchchendur,8.4833,78.1167,25.24,82,90,5.67,IN,1675018646
410,bumba,2.1833,22.4667,23.31,75,5,1.72,CD,1675018646
411,tucurui,-3.7661,-49.6725,27.84,80,53,1.36,BR,1675018647
412,kokopo,-4.352,152.2633,25.37,86,35,1.81,PG,1675018648
413,nishihara,26.1842,127.7558,13.6,51,40,6.69,JP,1675018648
414,matara,5.9485,80.5353,22.58,86,1,1.84,LK,1675018649
415,husavik,66.0449,-17.3389,-3.37,92,100,6.92,IS,1675018638
416,kirakira,-10.4544,161.9205,24.92,89,100,1.92,SB,1675018542
417,kutum,14.2,24.6667,23.56,14,100,2.57,SD,1675018650
418,lorengau,-2.0226,147.2712,27.22,78,87,1.48,PG,1675018651
419,ahuimanu,21.4447,-157.8378,21.59,87,100,2.68,US,1675018424
420,monywa,22.1167,95.1333,21.66,52,1,1.96,MM,1675018652
421,port blair,11.6667,92.75,27.02,74,40,4.63,IN,1675018652
422,byron bay,-28.65,153.6167,23.3,79,100,3.04,AU,1675018508
423,dakar,14.6937,-17.4441,24.49,65,48,8.89,SN,1675018653
424,namatanai,-3.6667,152.4333,26.77,79,72,2.0,PG,1675018654
425,nzega,-2.479,29.5564,13.35,88,6,2.03,RW,1675018655
426,road town,18.4167,-64.6167,27.02,69,40,7.2,VG,1675018655
427,mangan,27.5167,88.5333,15.91,41,0,2.65,IN,1675018656
428,prainha,-1.8,-53.48,30.6,53,56,1.4,BR,1675018656
429,dingle,10.9995,122.6711,23.8,93,100,4.6,PH,1675018657
430,valparaiso,-33.0393,-71.6273,20.8,72,20,5.66,CL,1675018658
431,coihaique,-45.5752,-72.0662,24.97,47,40,4.12,CL,1675018554
432,sterling,39.0062,-77.4286,8.42,81,100,5.36,US,1675018659
433,haines junction,60.7522,-137.5108,-15.49,99,98,0.31,CA,1675018659
434,guiberoua,6.2392,-6.1727,27.35,64,100,2.63,CI,1675018660
435,hargeysa,9.56,44.065,15.85,90,12,4.74,SO,1675018587
436,north bend,43.4065,-124.2243,4.02,81,0,7.18,US,1675018661
437,san luis,-33.295,-66.3356,26.83,54,40,4.63,AR,1675018661
438,katsuura,35.1333,140.3,7.01,65,55,7.51,JP,1675018662
439,vardo,70.3705,31.1107,-0.01,93,40,11.32,NO,1675018663
440,mastic beach,40.7668,-72.8521,10.86,78,100,1.79,US,1675018664
441,ellisras,-23.6649,27.7443,25.23,60,95,8.77,ZA,1675018664
442,burns lake,54.2331,-125.7533,-24.32,90,95,0.26,CA,1675018665
443,lagoa,39.05,-27.9833,14.04,70,1,6.24,PT,1675018656
444,waunakee,43.1919,-89.4557,-6.77,73,100,4.12,US,1675018535
445,terra santa,-2.1042,-56.4869,31.58,50,95,1.64,BR,1675018666
446,jalu,29.0331,21.5482,14.0,36,6,4.6,LY,1675018565
447,abonnema,4.7084,6.7931,27.07,76,93,3.25,NG,1675018667
448,gisborne,-38.6533,178.0042,17.72,88,100,2.54,NZ,1675018668
449,svarstad,59.399,9.9698,6.94,52,94,3.58,NO,1675018668
450,san ramon,37.7799,-121.978,11.29,69,91,2.68,US,1675018453
451,severnyy,50.677,36.5532,-4.98,86,75,3.0,RU,1675018669
452,hazorasp,41.3194,61.0742,-2.09,53,84,3.68,UZ,1675018670
453,saint-georges,12.0564,-61.7485,28.82,61,20,7.72,GD,1675018670
454,aksu,41.1231,80.2644,-11.85,90,14,2.24,CN,1675018671
455,sitka,57.0531,-135.33,1.94,80,40,0.0,US,1675018672
456,sao gabriel da cachoeira,-0.1303,-67.0892,26.89,83,40,1.03,BR,1675018672
457,boundiali,9.5217,-6.4869,28.42,15,100,2.0,CI,1675018673
458,nantucket,41.2835,-70.0995,9.52,84,100,7.43,US,1675018615
459,jumla,29.2747,82.1838,0.92,57,0,3.49,NP,1675018674
460,grand gaube,-20.0064,57.6608,26.32,84,100,1.18,MU,1675018675
461,conde,-7.2597,-34.9075,30.7,58,75,6.17,BR,1675018675
462,dharmavaram,14.4333,77.7167,20.76,79,12,3.7,IN,1675018676
463,barmer,25.75,71.3833,14.68,15,0,3.3,IN,1675018677
464,vagur,61.4732,-6.8119,5.02,76,100,17.79,FO,1675018677
465,kilindoni,-7.9139,39.6668,26.79,77,100,5.74,TZ,1675018678
466,calabozo,8.9242,-67.4293,34.51,23,78,3.0,VE,1675018679
467,lat yao,15.751,99.7893,18.12,44,38,1.75,TH,1675018679
468,barra,-11.0894,-43.1417,31.1,37,37,1.08,BR,1675018680
469,xining,36.6167,101.7667,-3.62,26,0,0.71,CN,1675018680
470,lodja,-3.4833,23.4333,20.98,96,99,0.38,CD,1675018681
471,labuan,5.2767,115.2417,27.2,89,20,2.57,MY,1675018684
472,kadirli,37.3739,36.0961,9.54,88,100,2.19,TR,1675018690
473,inhambane,-23.865,35.3833,27.99,74,20,4.63,MZ,1675018421
474,suez,29.9737,32.5263,16.89,58,100,5.9,EG,1675018693
475,bathsheba,13.2167,-59.5167,28.34,57,20,6.69,BB,1675018695
476,sisimiut,66.9395,-53.6735,-8.62,82,100,8.09,GL,1675018696
477,saurimo,-9.6608,20.3916,19.25,91,100,1.32,AO,1675018698
478,burkburnett,34.0979,-98.5706,-2.62,45,100,6.38,US,1675018699
479,satipo,-11.2522,-74.6386,31.53,47,77,1.94,PE,1675018701
480,portland,45.5234,-122.6762,3.46,36,20,7.72,US,1675018366
481,leiyang,26.4024,112.8591,5.76,36,0,0.77,CN,1675018708
482,kumluca,36.3703,30.2869,11.87,67,5,2.83,TR,1675018714
483,aranos,-24.1333,19.1167,31.71,22,72,3.02,NA,1675018717
484,coaldale,49.7167,-112.6185,-17.38,60,75,5.66,CA,1675018477
485,argir,61.9959,-6.7715,4.54,76,25,15.52,FO,1675018723
486,ajuchitlan,20.7167,-100.0167,20.66,23,2,0.59,MX,1675018724
487,ormara,25.2088,64.6357,17.81,35,0,7.01,PK,1675018724
488,santiago,-33.4569,-70.6483,34.75,21,0,7.72,CL,1675018462
489,dutlwe,-23.9833,23.9,25.25,42,100,5.14,BW,1675018725
490,townsville,-19.25,146.8,25.49,83,75,3.09,AU,1675018726
491,kitim,32.4383,35.8956,8.9,74,87,0.66,JO,1675018727
492,san juan,-31.5375,-68.5364,30.97,38,89,5.8,AR,1675018637
493,collipulli,-37.95,-72.4333,32.7,23,0,3.17,CL,1675018728
494,sorland,67.667,12.6934,1.92,98,100,10.67,NO,1675018728
495,beyneu,45.3167,55.2,-1.93,78,5,5.04,KZ,1675018729
496,nuuk,64.1835,-51.7216,-3.32,71,100,7.8,GL,1675018729
497,makat,47.6469,53.3463,-2.47,70,9,4.14,KZ,1675018730
498,koumac,-20.5667,164.2833,24.42,83,19,4.36,NC,1675018731
499,port hardy,50.6996,-127.4199,0.1,86,20,1.03,CA,1675018486
500,shitanjing,39.2342,106.3439,-5.34,23,0,1.21,CN,1675018732
501,todos santos,23.45,-110.2167,25.17,73,0,4.29,MX,1675018732
502,kokstad,-30.5472,29.4241,10.58,97,100,1.22,ZA,1675018460
503,inta,66.0317,60.1659,-9.5,84,100,7.31,RU,1675018733
504,san antonio,29.4241,-98.4936,25.08,71,75,2.57,US,1675018547
505,urbino,43.7298,12.6356,2.37,82,21,1.21,IT,1675018734
506,masunga,-20.6246,27.4488,22.29,54,54,2.57,BW,1675018735
507,joshimath,30.5667,79.5667,7.18,62,100,1.08,IN,1675018736
508,howard springs,-12.497,131.047,25.95,92,100,0.86,AU,1675018736
509,salekhard,66.53,66.6019,-18.6,97,100,1.27,RU,1675018737
510,luan,46.3592,6.9759,-4.8,86,100,1.32,CH,1675018738
511,alexandria,31.2156,29.9553,14.98,72,20,2.06,EG,1675017935
512,igrim,63.1906,64.4162,-13.26,95,100,2.97,RU,1675018738
513,gagra,43.3283,40.2239,8.51,96,100,4.25,GE,1675018739
514,nyrob,60.733,56.7202,-12.82,95,100,3.62,RU,1675018740
515,codrington,-38.2667,141.9667,12.54,85,0,2.48,AU,1675018740
516,churapcha,62.0025,132.4325,-49.37,100,87,1.55,RU,1675018741
517,vao,-22.6667,167.4833,24.58,76,21,4.22,NC,1675018742
518,canico,32.6333,-16.85,14.35,78,40,3.09,PT,1675018743
519,rocha,-34.4833,-54.3333,26.86,48,0,6.74,UY,1675018744
520,mecca,21.4267,39.8261,24.5,60,51,1.43,SA,1675018558
521,sao jose da coroa grande,-8.8978,-35.1478,27.96,65,18,4.36,BR,1675018747
522,paamiut,61.994,-49.6678,-3.76,70,100,8.0,GL,1675018750
523,tirat karmel,32.7617,34.9719,15.93,76,93,1.8,IL,1675018752
524,galle,6.0367,80.217,23.74,80,5,0.4,LK,1675018756
525,praya,14.9215,-23.5087,23.3,60,75,10.29,CV,1675018716
526,uren,57.4552,45.7852,-10.16,96,100,3.58,RU,1675018762
527,nacala,-14.5428,40.6728,25.95,89,20,3.17,MZ,1675018511
528,bereznik,62.8551,42.7072,-7.23,93,95,3.73,RU,1675018769
529,porto velho,-8.7619,-63.9039,28.03,69,75,2.57,BR,1675018771
530,sucre,-19.0333,-65.2627,12.77,83,100,2.11,BO,1675018773
531,hastings,50.8552,0.5729,8.22,83,100,7.26,GB,1675018776
532,murovani kurylivtsi,48.7235,27.5189,-2.65,70,15,1.69,UA,1675018786
533,meulaboh,4.1363,96.1285,24.77,91,100,1.4,ID,1675018788
534,arroyo,41.6096,-4.7969,2.84,71,0,5.14,ES,1675018788
535,tilichiki,60.4667,166.1,-0.22,87,100,17.46,RU,1675018529
536,ilulissat,69.2167,-51.1,-18.07,67,100,4.51,GL,1675018790
537,scottsbluff,41.8666,-103.6672,-14.57,73,100,3.09,US,1675018741
538,kysyl-syr,63.8986,122.7617,-47.5,100,82,1.44,RU,1675018791
539,douglas,41.3,-96.167,-12.1,69,100,5.66,US,1675018792
540,makakilo city,21.3469,-158.0858,20.94,82,100,4.63,US,1675018792
541,cherskiy,68.75,161.3,-23.38,97,100,1.78,RU,1675018793
542,bayan,46.0833,127.4,-22.69,98,98,1.07,CN,1675018794
543,anito,12.4497,125.2886,24.57,96,100,5.2,PH,1675018794
544,jatai,-17.8814,-51.7144,27.11,62,87,1.41,BR,1675018567
545,qasigiannguit,68.8193,-51.1922,-16.07,68,100,4.55,GL,1675018795
546,te anau,-45.4167,167.7167,11.97,57,100,0.41,NZ,1675018623
547,kampot,10.6167,104.1833,25.03,57,100,5.02,KH,1675018797
548,octeville,49.6261,-1.6435,8.88,93,75,4.12,FR,1675018797
549,paita,-5.0892,-81.1144,26.8,61,45,6.63,PE,1675018798
550,cervo,43.6702,-7.4101,9.98,71,91,6.74,ES,1675018392
551,kortkeros,61.8106,51.5806,-7.0,93,100,3.99,RU,1675018799
552,zamberk,50.086,16.4674,-2.38,84,100,1.02,CZ,1675018800
553,rincon,32.296,-81.2354,17.14,81,100,2.06,US,1675018574
554,srivardhan,18.0333,73.0167,21.85,90,9,3.53,IN,1675018803
555,matias romero,16.8833,-95.0333,27.46,55,37,5.82,MX,1675018806
556,turayf,31.6725,38.6637,13.09,39,100,2.15,SA,1675018816
557,katobu,-4.9408,122.5276,23.95,93,56,0.78,ID,1675018829
558,sola,-13.8833,167.55,27.73,74,100,3.34,VU,1675018820
559,kruisfontein,-34.0033,24.7314,16.92,60,100,5.29,ZA,1675018857
560,avera,33.194,-82.5271,9.03,78,100,1.03,US,1675018858
561,bagdarin,54.4333,113.6,-24.34,96,91,1.45,RU,1675018858
562,shahpur,16.7,76.8333,21.75,58,42,4.21,IN,1675018687
563,lyngdal,58.1376,7.07,7.72,90,100,13.53,NO,1675018860
564,golkoy,40.6875,37.6178,1.49,95,92,1.06,TR,1675018860
565,dalvik,65.9702,-18.5286,-3.41,93,100,5.67,IS,1675018862
566,aberdeen,57.1437,-2.0981,7.27,65,6,8.23,GB,1675018865
