City_ID,City,Lat,Lng,Max Temp,Humidity,Cloudiness,Wind Speed,Country,Date
0,rikitea,-23.1203,-134.9692,25.91,75,9,7.14,PF,1675620588
1,mataura,-46.1927,168.8643,14.37,90,99,4.49,NZ,1675620579
2,atuona,-9.8,-139.0333,25.72,78,11,7.54,PF,1675620589
3,andenes,69.3143,16.1194,3.99,48,0,11.83,NO,1675620590
4,luba,3.4568,8.5547,27.61,81,44,4.48,GQ,1675620591
5,bluff,-46.6,168.3333,15.22,87,94,15.03,NZ,1675620143
6,dingle,10.9995,122.6711,23.33,92,100,3.28,PH,1675620330
7,busselton,-33.65,115.3333,18.81,84,6,6.4,AU,1675620142
8,nuuk,64.1835,-51.7216,-10.66,79,75,4.63,GL,1675620593
9,tasiilaq,65.6145,-37.6368,-3.91,83,100,4.07,GL,1675620593
10,los llanos de aridane,28.6585,-17.9182,16.86,77,75,5.14,ES,1675620594
11,constitucion,-35.3333,-72.4167,20.67,70,43,3.65,CL,1675620596
12,tuktoyaktuk,69.4541,-133.0374,-43.0,66,20,1.03,CA,1675620150
13,severo-kurilsk,50.6789,156.125,-4.39,79,94,3.47,RU,1675620598
14,canutama,-6.5339,-64.3831,28.36,81,85,0.42,BR,1675620599
15,nur,52.6683,22.3221,-4.39,84,54,2.75,PL,1675620599
16,hilo,19.7297,-155.09,23.49,95,100,2.57,US,1675620600
17,derzhavinsk,51.1,66.3167,-11.12,97,86,3.02,KZ,1675620601
18,georgetown,5.4112,100.3354,24.97,99,40,1.03,MY,1675620317
19,punta arenas,-53.15,-70.9167,11.06,50,0,14.92,CL,1675620138
20,qaanaaq,77.484,-69.3632,-19.33,63,0,3.89,GL,1675620137
21,spencer,43.1414,-95.1444,-0.94,79,0,2.57,US,1675620603
22,shubarkuduk,49.1447,56.4872,-15.64,92,92,3.44,KZ,1675620603
23,alofi,-19.0595,-169.9187,26.74,76,100,6.34,NU,1675620604
24,raga,8.4596,25.678,26.09,14,56,1.8,SS,1675620605
25,iranshahr,27.2025,60.6848,17.53,51,0,0.47,IR,1675620606
26,jamestown,42.097,-79.2353,6.21,33,100,6.69,US,1675620095
27,nikolskoye,59.7035,30.7861,-5.05,83,100,3.29,RU,1675620588
28,havre-saint-pierre,50.2334,-63.5986,-17.8,78,100,5.14,CA,1675620608
29,acarau,-2.8856,-40.12,28.69,69,84,6.67,BR,1675620609
30,saskylakh,71.9167,114.0833,-40.41,100,100,1.77,RU,1675620610
31,barcelona,41.3888,2.159,13.44,65,0,2.06,ES,1675620005
32,tigil,57.8,158.6667,-28.08,100,94,1.0,RU,1675620611
33,puerto ayora,-0.7393,-90.3518,29.98,86,39,3.58,EC,1675620612
34,east london,-33.0153,27.9116,25.52,83,0,4.63,ZA,1675620111
35,beringovskiy,63.05,179.3167,-28.5,93,99,5.45,RU,1675620613
36,kutum,14.2,24.6667,22.25,11,57,2.11,SD,1675620592
37,amot,59.5714,7.9877,-5.96,93,98,2.22,NO,1675620614
38,izumo,35.3667,132.7667,2.56,80,3,2.67,JP,1675620615
39,ushuaia,-54.8,-68.3,6.81,65,75,14.4,AR,1675620134
40,san patricio,28.017,-97.5169,24.93,64,0,2.5,US,1675620616
41,torbay,47.6666,-52.7314,-2.46,75,38,3.13,CA,1675620617
42,margate,51.3813,1.3862,6.5,80,95,2.68,GB,1675620618
43,aklavik,68.2191,-135.0107,-42.96,100,45,0.41,CA,1675620619
44,pochutla,15.7432,-96.4661,31.9,39,0,3.5,MX,1675620620
45,matagami,49.7502,-77.6328,-16.94,71,40,1.54,CA,1675620621
46,kapaa,22.0752,-159.319,23.18,91,100,7.2,US,1675620621
47,kodiak,57.79,-152.4072,1.73,100,100,14.4,US,1675620152
48,upernavik,72.7868,-56.1549,-26.05,96,99,0.73,GL,1675620622
49,willowmore,-33.2926,23.4895,21.27,67,11,7.18,ZA,1675620623
50,hobart,-42.8794,147.3294,14.47,76,94,3.09,AU,1675620582
51,avera,33.194,-82.5271,15.77,61,100,1.49,US,1675620152
52,mountain home,43.133,-115.6912,3.97,82,75,3.09,US,1675620625
53,iqaluit,63.7506,-68.5145,-29.06,68,100,9.77,CA,1675620625
54,cabo san lucas,22.8909,-109.9124,28.12,56,0,2.06,MX,1675620435
55,bethel,41.3712,-73.414,7.32,46,0,3.6,US,1675620570
56,kontagora,10.3999,5.4695,32.0,11,76,0.41,NG,1675620628
57,puerto el triunfo,13.2833,-88.55,31.87,38,4,1.36,SV,1675620628
58,ahipara,-35.1667,173.1667,17.54,93,98,3.44,NZ,1675620629
59,thompson,55.7435,-97.8558,-17.91,78,100,1.03,CA,1675620149
60,fortuna,40.5982,-124.1573,9.25,95,75,0.89,US,1675620630
61,pinyug,60.251,47.7842,-17.58,100,95,0.7,RU,1675620631
62,lagoa,39.05,-27.9833,15.32,84,68,8.32,PT,1675620632
63,teteven,42.9167,24.2667,-4.66,97,100,1.92,BG,1675620632
64,dikson,73.5069,80.5464,-19.84,97,100,1.11,RU,1675620633
65,xining,36.6167,101.7667,-4.11,53,5,1.23,CN,1675620633
66,port elizabeth,-33.918,25.5701,26.17,96,38,3.58,ZA,1675620634
67,cairns,-16.9167,145.7667,26.7,97,40,2.06,AU,1675620635
68,poplar bluff,36.757,-90.3929,12.96,58,0,1.54,US,1675620635
69,luderitz,-26.6481,15.1594,20.06,71,14,9.71,NA,1675620636
70,sao felix do xingu,-6.6447,-51.995,32.02,51,96,0.99,BR,1675620637
71,sorland,67.667,12.6934,3.92,61,97,9.22,NO,1675620637
72,gori,41.9842,44.1158,2.52,58,82,3.24,GE,1675620638
73,kokoda,-8.8785,147.7407,23.88,92,100,1.01,PG,1675620639
74,port lincoln,-34.7333,135.8667,16.05,84,4,4.88,AU,1675620640
75,avarua,-21.2078,-159.775,27.03,83,75,5.66,CK,1675620595
76,mongar,27.2747,91.2396,5.78,70,4,2.59,BT,1675620641
77,new norfolk,-42.7826,147.0587,14.28,63,96,1.34,AU,1675620637
78,imbituba,-28.24,-48.6703,26.87,60,26,4.36,BR,1675620642
79,clyde river,70.4692,-68.5914,-26.52,84,100,1.28,CA,1675620643
80,longyearbyen,78.2186,15.6401,-4.09,74,40,16.98,SJ,1675620150
81,ilulissat,69.2167,-51.1,-22.36,98,100,2.75,GL,1675619965
82,kaitangata,-46.2817,169.8464,13.11,91,97,2.89,NZ,1675620113
83,conceicao do rio verde,-21.8808,-45.0853,25.01,77,76,3.2,BR,1675620645
84,castro,-24.7911,-50.0119,23.89,64,78,2.4,BR,1675620645
85,ambon,-3.6954,128.1814,24.08,94,75,1.03,ID,1675620646
86,cape town,-33.9258,18.4232,22.84,79,20,8.75,ZA,1675620007
87,fuerte olimpo,-21.0415,-57.8738,33.21,42,45,2.11,PY,1675620647
88,hithadhoo,-0.6,73.0833,27.3,70,69,4.98,MV,1675620648
89,kano,12.0001,8.5167,29.58,12,91,3.61,NG,1675620649
90,kot samaba,28.5522,70.4684,20.03,29,0,1.31,PK,1675620650
91,nachingwea,-10.3833,38.7667,22.83,89,85,0.92,TZ,1675620650
92,victoria,22.2855,114.1577,19.41,88,87,1.34,HK,1675620492
93,sioux lookout,50.1001,-91.917,-13.16,83,83,2.02,CA,1675620651
94,caravelas,-17.7125,-39.2481,30.07,61,0,5.91,BR,1675620652
95,awbari,26.5921,12.7805,13.39,37,13,3.51,LY,1675620653
96,greytown,-29.0642,30.5928,17.02,97,45,1.08,ZA,1675620654
97,iwaki,37.05,140.8833,3.2,76,96,2.19,JP,1675620654
98,port augusta,-32.5,137.7667,19.91,54,2,3.96,AU,1675620655
99,hualmay,-11.0964,-77.6139,25.14,69,44,3.84,PE,1675620656
100,fare,-16.7,-151.0167,27.43,75,18,7.01,PF,1675620656
101,xuddur,4.1213,43.8894,26.05,21,40,5.11,SO,1675620658
102,yellowknife,62.456,-114.3525,-26.71,76,100,4.12,CA,1675620087
103,bulgan,48.8125,103.5347,-18.56,96,92,1.54,MN,1675620660
104,dukat,62.55,155.55,-37.71,100,91,2.17,RU,1675620660
105,hambantota,6.1241,81.1185,24.98,84,100,4.99,LK,1675620661
106,albany,42.6001,-73.9662,4.21,49,100,1.79,US,1675620042
107,khatanga,71.9667,102.5,-34.29,95,98,2.38,RU,1675620664
108,lavrentiya,65.5833,-171.0,-19.94,96,100,4.1,RU,1675620665
109,dubbo,-32.25,148.6167,15.07,63,0,4.12,AU,1675620667
110,anastacio,-20.4836,-55.8069,31.39,46,100,2.09,BR,1675620668
111,oktyabrskiy,54.4815,53.471,-10.37,95,100,1.04,RU,1675620668
112,kieta,-6.2167,155.6333,25.68,84,100,0.91,PG,1675620669
113,honiara,-9.4333,159.95,25.28,98,100,3.66,SB,1675620670
114,noumea,-22.2763,166.4572,28.33,99,72,4.4,NC,1675620644
115,atasu,48.6814,71.6433,-6.64,96,99,2.71,KZ,1675620671
116,taltal,-25.4,-70.4833,23.53,69,2,3.18,CL,1675620672
117,zhezkazgan,47.8043,67.7144,-2.59,96,100,2.54,KZ,1675620673
118,kaeo,-35.1,173.7833,19.07,94,99,2.41,NZ,1675620485
119,bredasdorp,-34.5322,20.0403,21.75,73,88,4.09,ZA,1675620636
120,haapiti,-17.5667,-149.8667,28.85,73,94,6.75,PF,1675620674
121,hermanus,-34.4187,19.2345,21.0,80,97,3.83,ZA,1675620143
122,fairbanks,64.8378,-147.7164,-23.28,76,0,2.06,US,1675620379
123,cayenne,4.9333,-52.3333,23.02,100,75,0.0,GF,1675620559
124,olinda,-8.0089,-34.8553,28.85,70,40,3.09,BR,1675620478
125,freeport,40.6576,-73.5832,7.43,54,0,5.14,US,1675620676
126,saint-philippe,-21.3585,55.7679,26.77,86,89,4.45,RE,1675620147
127,riyadh,24.6877,46.7219,17.08,38,6,3.14,SA,1675620678
128,bara,10.3744,10.7288,29.24,13,85,3.93,NG,1675620678
129,chokurdakh,70.6333,147.9167,-39.72,100,97,1.47,RU,1675620679
130,bengkulu,-3.8004,102.2655,23.43,91,99,3.15,ID,1675620680
131,klaksvik,62.2266,-6.589,8.51,93,100,15.2,FO,1675620680
132,aquiraz,-3.9014,-38.3911,30.05,71,70,4.34,BR,1675620681
133,griffith,41.5284,-87.4237,7.27,65,0,6.17,US,1675620682
134,fukue,32.6881,128.8419,10.17,53,84,5.2,JP,1675620683
135,dongying,37.4564,118.4856,4.77,39,97,1.74,CN,1675620683
136,kailua,21.4022,-157.7394,23.99,87,54,1.79,US,1675620684
137,tuatapere,-46.1333,167.6833,14.52,92,97,7.5,NZ,1675620636
138,vigrestad,58.5667,5.7,6.09,89,100,7.41,NO,1675620685
139,meulaboh,4.1363,96.1285,23.49,89,97,1.69,ID,1675620467
140,la romana,18.4273,-68.9728,31.2,48,40,5.14,DO,1675620686
141,sao joao da barra,-21.6403,-41.0511,33.05,77,12,4.82,BR,1675620523
142,rio grande,-32.035,-52.0986,27.06,72,56,6.65,BR,1675620687
143,touros,-5.1989,-35.4608,29.33,65,84,5.85,BR,1675620143
144,norman wells,65.282,-126.8329,-32.98,68,75,1.03,CA,1675620688
145,tual,-5.6667,132.75,26.46,84,100,8.67,ID,1675620654
146,sao paulo de olivenca,-3.3783,-68.8725,24.0,90,99,1.56,BR,1675620690
147,esperance,-33.8667,121.9,20.33,67,32,8.95,AU,1675620691
148,lebu,-37.6167,-73.65,19.04,75,26,8.63,CL,1675620692
149,coihaique,-45.5752,-72.0662,21.97,35,20,3.6,CL,1675619901
150,novoagansk,61.9449,76.6625,-18.4,99,99,1.3,RU,1675620693
151,vuktyl,63.8567,57.3094,-17.05,98,94,1.4,RU,1675620694
152,inuvik,68.3499,-133.7218,-41.81,100,54,0.4,CA,1675620642
153,cidreira,-30.1811,-50.2056,28.0,50,12,6.55,BR,1675620696
154,anadyr,64.75,177.4833,-33.72,68,0,4.0,RU,1675620696
155,thinadhoo,0.5333,72.9333,27.07,69,74,4.15,MV,1675620697
156,shingu,33.7333,135.9833,3.72,54,16,2.45,JP,1675620697
157,hami,42.8,93.45,-1.29,39,10,0.52,CN,1675620698
158,kembe,4.6228,21.8865,27.52,17,14,0.85,CF,1675620699
159,port blair,11.6667,92.75,26.24,80,25,2.77,IN,1675620699
160,codrington,-38.2667,141.9667,13.51,85,45,2.8,AU,1675620700
161,quthing,-30.4,27.7003,21.39,49,55,2.62,LS,1675620701
162,komsomolskiy,40.4272,71.7189,4.4,93,100,1.03,UZ,1675620601
163,saint-joseph,-21.3667,55.6167,26.21,85,89,5.0,RE,1675620702
164,butaritari,3.0707,172.7902,26.93,82,87,8.3,KI,1675620643
165,umm kaddadah,13.6017,26.6876,23.58,12,46,5.12,SD,1675620703
166,sabirabad,40.0095,48.4752,7.2,66,77,1.59,AZ,1675620704
167,harper,4.375,-7.7169,27.74,78,100,4.71,LR,1675620704
168,kota bahru,6.1333,102.2386,23.75,90,78,2.13,MY,1675620705
169,petatlan,17.5167,-101.2667,29.89,33,1,2.77,MX,1675620706
170,saldanha,-33.0117,17.9442,21.03,88,25,8.88,ZA,1675620707
171,hamilton,39.1834,-84.5333,11.69,53,100,9.77,US,1675620708
172,cockburn town,21.4612,-71.1419,25.12,77,4,9.44,TC,1675620598
173,tiksi,71.6872,128.8694,-34.24,100,100,1.5,RU,1675620595
174,grand gaube,-20.0064,57.6608,26.88,77,72,1.79,MU,1675620710
175,northam,51.0333,-4.2167,7.01,80,90,2.49,GB,1675620711
176,diffa,13.3154,12.6113,28.17,13,100,3.26,NE,1675620711
177,biltine,14.5333,20.9167,26.67,8,93,3.73,TD,1675620712
178,inhambane,-23.865,35.3833,24.84,81,2,4.97,MZ,1675620713
179,fort nelson,58.8053,-122.7002,-15.59,83,100,5.14,CA,1675620701
180,antalaha,-14.9003,50.2788,24.47,91,98,2.72,MG,1675619935
181,arlit,18.7369,7.3853,27.52,9,10,4.16,NE,1675620714
182,keetmanshoop,-26.5833,18.1333,29.08,38,64,5.26,NA,1675620715
183,bathsheba,13.2167,-59.5167,28.34,65,40,10.8,BB,1675620716
184,namatanai,-3.6667,152.4333,25.58,81,99,1.37,PG,1675620716
185,port alfred,-33.5906,26.891,21.77,90,6,1.34,ZA,1675620717
186,ibirapitanga,-14.1642,-39.3736,33.97,35,27,2.76,BR,1675620718
187,faya,18.3851,42.4509,13.29,62,98,2.25,SA,1675620562
188,maniitsoq,65.4167,-52.9,-16.01,88,100,5.97,GL,1675620568
189,emba,48.8264,58.1442,-18.09,97,37,2.64,KZ,1675620574
190,arraial do cabo,-22.9661,-42.0278,28.92,70,40,2.06,BR,1675620572
191,te anau,-45.4167,167.7167,13.81,90,100,3.69,NZ,1675620647
192,kirovsk,48.6375,38.6428,-2.52,90,100,4.41,UA,1675620721
193,paracuru,-3.41,-39.0306,28.39,68,93,5.15,BR,1675620511
194,abay,49.6311,72.8539,-11.79,96,99,1.81,KZ,1675620722
195,alice springs,-23.7,133.8833,14.75,72,0,2.57,AU,1675620723
196,bambous virieux,-20.3428,57.7575,26.79,82,77,5.09,MU,1675620135
197,red bluff,40.1785,-122.2358,9.92,81,100,6.17,US,1675620629
198,probolinggo,-7.7543,113.2159,24.35,81,99,1.77,ID,1675620725
199,ponta delgada,37.7333,-25.6667,16.4,77,40,4.63,PT,1675620497
200,rovnoye,50.7765,46.0509,-10.23,95,97,2.49,RU,1675620726
201,kavaratti,10.5669,72.642,27.18,74,6,3.62,IN,1675620727
202,aykhal,66.0,111.5,-38.08,100,61,1.29,RU,1675620727
203,dhidhdhoo,6.8833,73.1,27.18,72,68,0.75,MV,1675620728
204,kazachinskoye,57.6953,93.2761,-22.86,100,97,1.15,RU,1675620729
205,vaini,-21.2,-175.2,26.35,75,67,2.48,TO,1675620145
206,emerald,-23.5333,148.1667,24.63,91,100,5.45,AU,1675620730
207,ribeira grande,38.5167,-28.7,16.54,88,20,6.26,PT,1675620731
208,asau,46.4333,26.4,-4.29,91,95,3.16,RO,1675620731
209,istok,42.7808,20.4875,-4.6,69,53,2.86,XK,1675620732
210,talnakh,69.4865,88.3972,-18.22,97,100,1.59,RU,1675620733
211,champerico,14.3,-91.9167,28.55,63,0,4.12,GT,1675620735
212,mar del plata,-38.0023,-57.5575,27.23,41,17,4.89,AR,1675620646
213,severo-yeniseyskiy,60.3725,93.0408,-16.86,98,100,2.1,RU,1675620736
214,tautira,-17.7333,-149.15,27.39,76,85,6.75,PF,1675620736
215,zhangye,38.9342,100.4517,-2.66,35,9,2.74,CN,1675620737
216,palatka,29.6486,-81.6376,24.12,63,65,0.89,US,1675620738
217,slupsk,54.4641,17.0287,-5.86,89,100,1.99,PL,1675620739
218,brigham city,41.5102,-112.0155,2.49,70,100,0.89,US,1675620705
219,provideniya,64.3833,-173.3,-17.28,96,97,4.47,RU,1675620293
220,vallenar,-28.5708,-70.7581,30.98,30,0,5.16,CL,1675620740
221,miranda de ebro,42.6865,-2.947,6.2,80,75,2.92,ES,1675620741
222,geraldton,-28.7667,114.6,23.23,73,100,5.14,AU,1675620741
223,erbaa,40.6689,36.5675,1.54,86,89,1.16,TR,1675620743
224,tramore,52.1624,-7.1524,6.72,74,0,1.03,IE,1675620743
225,barrow,71.2906,-156.7887,-27.99,76,100,3.6,US,1675620672
226,sidney,-33.8679,151.2073,22.61,78,75,4.63,AU,1675620662
227,yayva,59.3303,57.2641,-14.35,100,100,1.22,RU,1675620745
228,bilma,18.6853,12.9164,23.7,14,32,5.47,NE,1675620746
229,carnarvon,-24.8667,113.6333,24.99,76,2,6.18,AU,1675620746
230,san cristobal,7.7669,-72.225,26.1,67,48,3.17,VE,1675620747
231,cardenas,23.0375,-81.2047,28.42,48,0,3.66,CU,1675620748
232,ciudad bolivar,8.1222,-63.5497,31.92,38,86,5.94,VE,1675620748
233,chunskiy,56.0815,99.6342,-24.56,100,98,0.55,RU,1675620749
234,iki-burul,45.8208,44.6472,-1.03,81,82,5.09,RU,1675620750
235,portland,45.5234,-122.6762,9.49,92,75,6.26,US,1675620571
236,souillac,-20.5167,57.5167,26.21,89,20,1.54,MU,1675620751
237,gat,31.61,34.7642,13.55,100,39,5.01,IL,1675620752
238,ladario,-19.0047,-57.6017,33.16,49,40,2.57,BR,1675620695
239,kismayo,-0.3582,42.5454,24.55,84,47,6.83,SO,1675620753
240,igrim,63.1906,64.4162,-22.96,100,97,0.82,RU,1675620753
241,sabha,27.0377,14.4283,13.39,39,6,4.67,LY,1675620754
242,buraydah,26.326,43.975,16.38,27,72,4.08,SA,1675620755
243,atar,20.5169,-13.0499,24.48,14,50,4.71,MR,1675620755
244,mahebourg,-20.4081,57.7,26.81,89,20,1.54,MU,1675620756
245,mayskiy,47.6931,40.1025,-0.33,89,100,5.51,RU,1675620757
246,hailar,49.2,119.7,-27.67,100,91,2.33,CN,1675620757
247,zabaykalsk,49.6333,117.3167,-23.4,100,62,2.93,RU,1675620758
248,tukrah,32.5341,20.5791,11.43,53,88,15.28,LY,1675620759
249,nome,64.5011,-165.4064,-8.96,79,75,3.09,US,1675620759
250,benguela,-12.5763,13.4055,26.24,71,51,2.97,AO,1675620760
251,rundu,-17.9333,19.7667,20.59,91,100,2.97,NA,1675620761
252,boguchany,58.3814,97.4531,-21.61,100,97,1.4,RU,1675620761
253,lebedinyy,58.5167,125.5167,-29.92,100,100,1.9,RU,1675620762
254,sajanan,37.0573,9.2426,10.51,83,38,0.86,TN,1675620763
255,omboue,-1.5746,9.2618,26.13,83,97,2.65,GA,1675620763
256,olafsvik,64.8945,-23.7142,7.17,91,94,17.89,IS,1675620638
257,fonte boa,-2.4959,-66.2662,29.72,64,100,0.9,BR,1675620764
258,yanji,42.9075,129.5078,-10.68,95,97,1.48,CN,1675620765
259,ketchikan,55.3422,-131.6461,3.26,87,20,1.54,US,1675620765
260,vostok,46.4856,135.8833,-21.17,100,99,1.64,RU,1675620767
261,beyneu,45.3167,55.2,1.91,69,100,0.44,KZ,1675620767
262,bijar,35.8668,47.6051,-9.83,97,41,1.98,IR,1675620768
263,kavieng,-2.5744,150.7967,27.42,74,96,1.07,PG,1675620769
264,barcelos,41.5388,-8.6151,15.08,60,0,1.38,PT,1675620769
265,tazovskiy,67.4667,78.7,-23.11,100,56,3.78,RU,1675620770
266,zhigansk,66.7697,123.3711,-42.02,97,97,1.23,RU,1675620735
267,camabatela,-8.1881,15.375,17.39,90,100,1.29,AO,1675620694
268,sitka,57.0531,-135.33,2.94,81,20,4.12,US,1675620497
269,wahiawa,21.5028,-158.0236,22.18,78,100,2.06,US,1675620573
270,kruisfontein,-34.0033,24.7314,24.94,80,13,5.7,ZA,1675620773
271,goderich,43.7501,-81.7165,3.84,75,100,7.2,CA,1675620773
272,krasnoturansk,54.3186,91.5639,-25.35,100,41,0.63,RU,1675620774
273,katsuura,35.1333,140.3,8.76,82,17,2.9,JP,1675620775
274,valleyview,55.0667,-117.2859,1.02,69,91,5.14,CA,1675620776
275,chuy,-33.6971,-53.4616,25.71,49,10,4.85,UY,1675620574
276,tateyama,34.9833,139.8667,9.42,76,5,3.07,JP,1675620777
277,giyani,-23.3025,30.7187,26.68,45,0,4.29,ZA,1675620778
278,altay,47.8667,88.1167,-10.53,74,29,3.64,CN,1675620766
279,nhulunbuy,-12.2333,136.7667,23.34,94,98,1.54,AU,1675620780
280,jibuti,11.5,42.5,21.56,73,26,5.41,DJ,1675620780
281,mogadishu,2.0371,45.3438,25.15,81,58,8.99,SO,1675620781
282,ambilobe,-13.2,49.05,23.58,94,100,1.05,MG,1675620782
283,caxito,-8.5785,13.6643,26.37,77,83,2.49,AO,1675620783
284,airai,-8.9266,125.4092,15.69,94,100,0.63,TL,1675620557
285,grindavik,63.8424,-22.4338,8.26,93,100,17.49,IS,1675620784
286,grand-santi,4.25,-54.3833,25.29,96,100,1.79,GF,1675620784
287,narsaq,60.9167,-46.05,-6.88,87,100,2.83,GL,1675620785
288,marica,-22.9194,-42.8186,29.97,77,49,3.05,BR,1675620482
289,muswellbrook,-32.2667,150.9,15.74,95,0,0.61,AU,1675620787
290,igbo ora,7.4333,3.2833,32.58,41,100,4.17,NG,1675620788
291,vasylivka,47.4369,35.2742,-0.74,76,99,5.24,UA,1675620788
292,wanaka,-44.7,169.15,16.17,64,93,6.26,NZ,1675620789
293,salinas,36.6777,-121.6555,13.95,79,0,6.17,US,1675620790
294,sarangani,5.4033,125.4636,27.47,74,100,5.63,PH,1675620790
295,naze,28.3667,129.4833,17.51,76,100,5.7,JP,1675620791
296,mayna,54.1135,47.6231,-15.43,97,100,1.09,RU,1675620792
297,srednekolymsk,67.45,153.6833,-37.27,100,100,2.62,RU,1675620692
298,jiayuguan,39.8167,98.3,-3.78,41,3,1.48,CN,1675620793
299,seoul,37.5683,126.9778,-3.31,100,20,1.03,KR,1675620794
300,xam nua,20.4197,104.0439,16.33,99,92,1.24,LA,1675620794
301,half moon bay,37.4636,-122.4286,12.97,87,20,6.17,US,1675620795
302,belen,36.4891,36.2233,1.08,93,100,6.69,TR,1675620795
303,coquimbo,-29.9533,-71.3436,22.85,64,0,6.69,CL,1675620618
304,chake chake,-5.2459,39.7666,26.04,78,13,4.89,TZ,1675620667
305,carbonia,39.1672,8.5222,12.53,86,42,0.68,IT,1675620797
306,cherskiy,68.75,161.3,-40.93,100,100,2.25,RU,1675620798
307,cap malheureux,-19.9842,57.6142,26.93,77,68,1.79,MU,1675620799
308,kuala terengganu,5.3302,103.1408,26.97,83,40,4.12,MY,1675620799
309,tabat,-2.635,115.2274,22.85,94,100,0.57,ID,1675620800
310,rosetta,31.4044,30.4164,15.06,52,66,9.38,EG,1675620801
311,bima,-8.4667,118.7167,24.34,95,100,1.41,ID,1675620586
312,dunedin,-45.8742,170.5036,18.78,48,59,2.68,NZ,1675620802
313,deep river,46.1001,-77.4995,0.24,99,100,2.54,CA,1675620802
314,weligama,5.9667,80.4167,24.61,90,93,1.33,LK,1675620803
315,kamaishi,39.2667,141.8833,-0.6,76,12,2.77,JP,1675620804
316,morehead,37.2711,-87.1764,12.14,55,100,4.12,US,1675620805
317,ovalle,-30.5983,-71.2003,29.78,37,0,5.36,CL,1675620806
318,garowe,8.4054,48.4845,23.51,48,18,7.32,SO,1675620806
319,rocha,-34.4833,-54.3333,26.28,48,34,4.21,UY,1675620746
320,yar-sale,66.8333,70.8333,-21.49,99,97,2.6,RU,1675620661
321,kuji,40.1878,141.7689,-1.6,79,26,3.01,JP,1675620808
322,araouane,18.9048,-3.5265,22.63,15,75,3.89,ML,1675620768
323,saint-augustin,51.226,-58.6502,-15.78,67,97,4.75,CA,1675620809
324,flinders,-34.5833,150.8552,20.66,80,96,1.34,AU,1675620810
325,bam,29.106,58.357,12.4,34,1,1.47,IR,1675620810
326,cabra,37.4725,-4.4421,11.9,44,1,0.93,ES,1675620811
327,hasaki,35.7333,140.8333,1.22,79,90,4.33,JP,1675620530
328,taoudenni,22.6783,-3.9836,21.25,17,46,4.47,ML,1675620812
329,bulakamba,-6.8748,108.9559,26.55,81,100,0.46,ID,1675620813
330,mnogovershinnyy,53.9353,139.9242,-25.51,97,94,1.77,RU,1675620814
331,mananara,-16.1667,49.7667,23.63,94,96,2.06,MG,1675620814
332,poronaysk,49.2167,143.1167,-23.49,96,87,1.24,RU,1675620815
333,leningradskiy,69.3833,178.4167,-32.21,98,100,2.02,RU,1675620550
334,lata,40.1629,-8.3327,10.97,61,0,2.62,PT,1675620760
335,padang,-0.9492,100.3543,22.03,79,100,1.28,ID,1675620817
336,ahuimanu,21.4447,-157.8378,23.84,85,40,4.63,US,1675620818
337,tessalit,20.1986,1.0114,24.33,10,70,4.38,ML,1675620819
338,rosarito,32.3333,-117.0333,16.34,79,19,2.84,MX,1675620820
339,ishinomaki,38.4167,141.3,1.52,71,5,1.98,JP,1675620570
340,telc,49.1842,15.4528,-4.3,87,100,0.78,CZ,1675620821
341,lompoc,34.6391,-120.4579,15.56,89,75,6.69,US,1675620822
342,kysyl-syr,63.8986,122.7617,-46.09,100,85,1.67,RU,1675620823
343,shache,38.4167,77.2406,-3.32,79,100,1.79,CN,1675620823
344,awjilah,29.1081,21.2869,14.0,68,74,7.46,LY,1675620824
345,bac lieu,9.285,105.7244,24.18,84,36,4.35,VN,1675620824
346,ipira,-12.1583,-39.7372,35.22,24,1,3.02,BR,1675620826
347,jumla,29.2747,82.1838,3.54,59,0,1.8,NP,1675620827
348,karasjok,69.4719,25.5112,-7.32,96,100,3.1,NO,1675620827
349,pisco,-13.7,-76.2167,25.03,78,0,4.63,PE,1675620715
350,auki,-8.7676,160.7034,24.84,94,100,5.62,SB,1675620829
351,ust-tsilma,65.441,52.1498,-25.23,100,94,1.12,RU,1675620732
352,poopo,-18.3667,-66.9667,6.96,78,100,3.31,BO,1675620830
353,dongsheng,39.8161,109.9776,-4.5,37,100,2.84,CN,1675620830
354,suntar,62.1444,117.6319,-48.8,100,75,0.94,RU,1675620831
355,adeje,28.1227,-16.726,18.09,54,40,4.63,ES,1675620831
356,wellington,-41.2866,174.7756,19.81,91,75,6.69,NZ,1675620656
357,nagato,34.3833,131.2,4.97,70,3,1.9,JP,1675620833
358,kirkuk,35.4681,44.3922,10.19,59,93,5.43,IQ,1675620833
359,mahibadhoo,3.7833,72.9667,27.34,74,99,2.99,MV,1675620834
360,melipilla,-33.7,-71.2167,19.45,35,0,5.91,CL,1675620835
361,ascension,30.2169,-90.9001,20.6,55,100,4.12,US,1675620835
362,honningsvag,70.9821,25.9704,-2.14,86,100,10.29,NO,1675620836
363,mildura,-34.2,142.15,18.77,47,0,3.58,AU,1675620837
364,sabang,5.8933,95.3214,27.21,71,97,2.2,ID,1675620837
365,ambulu,-8.345,113.6058,24.35,88,100,1.85,ID,1675620839
366,sawtell,-30.3833,153.1,18.99,94,12,1.54,AU,1675620840
367,larsnes,62.2028,5.5773,6.49,89,85,4.61,NO,1675620841
368,dubai,25.2582,55.3047,21.14,73,0,2.06,AE,1675620686
369,atyrau,47.1167,51.8833,-8.99,86,100,2.0,KZ,1675620842
370,udachnyy,66.4167,112.4,-42.97,100,83,0.98,RU,1675620842
371,safaga,26.7292,33.9365,19.84,32,98,2.64,EG,1675620843
372,dalaba,10.7,-12.25,28.55,16,39,1.64,GN,1675620844
373,tay ninh,11.3,106.1,24.47,70,51,2.17,VN,1675620845
374,almaznyy,48.0448,40.045,-2.5,89,100,4.56,RU,1675620846
375,lakatoro,-16.0999,167.4164,27.18,83,100,4.29,VU,1675620847
376,senj,44.9894,14.9058,3.37,64,57,4.22,HR,1675620847
377,tiznit,29.5833,-9.5,13.65,36,62,2.44,MA,1675620848
378,demba,-5.51,22.2667,21.46,81,36,1.51,CD,1675620849
379,belmonte,-15.8631,-38.8828,29.42,62,3,5.36,BR,1675620850
380,opuwo,-18.0607,13.84,24.43,29,76,5.75,NA,1675620851
381,ancud,-41.8697,-73.8203,17.85,77,48,4.65,CL,1675620743
382,rock sound,24.9,-76.2,24.4,76,6,7.8,BS,1675620852
383,teguldet,57.3064,88.1667,-23.49,100,96,0.56,RU,1675620854
384,borogontsy,62.6683,131.1683,-33.52,99,100,0.84,RU,1675620592
385,salinopolis,-0.6136,-47.3561,27.51,80,87,4.77,BR,1675620855
386,banyo,6.75,11.8167,24.92,17,88,1.9,CM,1675620856
387,petropavlovsk-kamchatskiy,53.0452,158.6483,-8.67,93,100,1.0,RU,1675620857
388,manta,-0.95,-80.7333,26.88,83,75,3.09,EC,1675620857
389,lakes entrance,-37.8811,147.981,13.24,91,26,3.19,AU,1675620858
390,merauke,-8.4667,140.3333,25.02,91,100,2.24,ID,1675620860
391,kuito,-12.3833,16.9333,15.32,90,100,1.75,AO,1675620861
392,kompaniyivka,48.2511,32.208,-2.25,81,100,5.47,UA,1675620861
393,saint-paul,-21.0096,55.2707,27.06,84,88,0.31,RE,1675620842
394,soyo,-6.1349,12.3689,26.06,81,100,2.76,AO,1675620863
395,kamenka,51.3223,42.7678,-12.02,98,76,2.19,RU,1675620863
396,mana,5.6592,-53.7767,25.38,86,99,5.86,GF,1675620864
397,peace river,56.2501,-117.286,-1.83,100,100,3.6,CA,1675620756
398,krasnoselkup,65.7,82.4667,-17.84,99,91,2.66,RU,1675620866
399,upington,-28.4478,21.2561,27.21,54,20,3.6,ZA,1675620867
400,cooma,-36.2333,149.1333,9.99,94,52,1.37,AU,1675620867
401,qaqortoq,60.7167,-46.0333,-6.14,82,100,3.34,GL,1675620868
402,mehamn,71.0357,27.8492,-4.03,80,75,8.75,NO,1675620869
403,juneau,58.3019,-134.4197,1.79,100,97,1.54,US,1675620870
404,severodvinsk,64.5635,39.8302,-9.94,94,17,3.17,RU,1675620766
405,stanghelle,60.5528,5.7357,4.1,96,100,1.44,NO,1675620871
406,nanortalik,60.1432,-45.2371,-4.75,73,100,5.62,GL,1675620872
407,puerto ayacucho,5.6639,-67.6236,32.79,44,99,0.55,VE,1675620873
408,christchurch,-43.5333,172.6333,22.11,44,1,4.12,NZ,1675620704
409,vangaindrano,-23.35,47.6,22.96,91,95,3.05,MG,1675620874
410,san quintin,30.4833,-115.95,16.72,63,0,6.68,MX,1675620875
411,the valley,18.217,-63.0578,27.92,65,20,9.26,AI,1675620723
412,sao filipe,14.8961,-24.4956,22.12,58,19,4.37,CV,1675620876
413,grootfontein,-19.5667,18.1167,19.33,84,100,3.52,NA,1675620877
414,tutoia,-2.7619,-42.2744,27.19,83,98,5.46,BR,1675620878
415,evensk,61.95,159.2333,-27.26,79,29,3.66,RU,1675620878
416,hervey bay,-25.2986,152.8535,25.48,89,96,5.02,AU,1675620879
417,salalah,17.0151,54.0924,24.05,69,0,1.54,OM,1675620880
418,berlevag,70.8578,29.0864,-4.0,73,100,2.06,NO,1675620880
419,urumqi,43.801,87.6005,-9.47,93,100,2.0,CN,1675620881
420,arinos,-15.9169,-46.1056,31.47,49,21,0.48,BR,1675620882
421,dera bugti,29.0307,69.151,17.53,29,0,1.69,PK,1675620882
422,madang,-5.2246,145.7966,24.2,92,100,3.4,PG,1675620883
423,srandakan,-7.9386,110.2506,25.9,83,99,3.87,ID,1675620884
424,talara,-4.5772,-81.2719,33.42,46,0,6.69,PE,1675620885
425,san carlos,9.6612,-68.5827,34.75,29,22,3.92,VE,1675620874
426,port macquarie,-31.4333,152.9167,18.83,80,55,1.29,AU,1675620843
427,baltasi,56.3462,50.2062,-17.26,100,98,1.98,RU,1675620886
428,chepareria,1.3077,35.2039,19.02,38,29,2.54,KE,1675620887
429,zaysan,47.4667,84.8667,-9.23,86,96,1.87,KZ,1675620888
430,ambatofinandrahana,-20.55,46.8,15.85,92,100,2.13,MG,1675620888
431,pa sang,18.5262,98.9394,26.12,39,65,0.94,TH,1675620889
432,nelson,-41.2833,173.2833,16.83,97,21,1.13,NZ,1675620890
433,smithers,54.7804,-127.1743,2.18,80,40,2.06,CA,1675620890
434,reconquista,-29.15,-59.65,33.23,15,98,1.7,AR,1675620891
435,ostersund,63.1792,14.6357,-0.77,86,0,6.17,SE,1675620892
436,ponta do sol,32.6667,-17.1,17.35,49,32,1.87,PT,1675620892
437,saint george,37.1041,-113.5841,13.02,37,20,1.79,US,1675620661
438,payo,-3.7508,103.6372,21.06,79,91,0.94,ID,1675620624
439,quatre cocos,-20.2078,57.7625,26.72,82,73,5.1,MU,1675620894
440,muravlenko,63.7898,74.523,-21.95,100,97,1.37,RU,1675620896
441,vanimo,-2.6741,141.3028,25.64,87,100,1.67,PG,1675620897
442,cranbrook,49.4999,-115.7688,-0.09,93,100,1.03,CA,1675620897
443,luwuk,-0.9516,122.7875,24.97,84,90,2.17,ID,1675620898
444,buta,2.7858,24.73,27.1,26,56,0.65,CD,1675620899
445,genhe,50.7833,121.5167,-33.16,100,100,0.67,CN,1675620900
446,hasilpur,29.7122,72.5553,18.71,28,4,4.23,PK,1675620901
447,kuopio,62.8924,27.677,-5.03,93,100,1.03,FI,1675620902
448,nantucket,41.2835,-70.0995,8.08,75,0,7.2,US,1675620679
449,ekuvukeni,-28.4675,30.1551,17.37,90,55,0.85,ZA,1675620903
450,jaru,-10.4389,-62.4664,27.06,86,86,1.12,BR,1675620903
451,bon air,37.5249,-77.5578,13.75,35,0,3.6,US,1675620840
452,buala,-8.145,159.5921,25.13,95,100,5.92,SB,1675620904
453,turayf,31.6725,38.6637,9.23,44,4,4.27,SA,1675620693
454,high rock,26.6208,-78.2833,24.01,75,87,8.69,BS,1675620905
455,glenwood springs,39.5505,-107.3248,6.57,59,100,5.14,US,1675620906
456,lagos,6.5833,3.75,31.18,79,100,3.69,NG,1675620319
457,porto velho,-8.7619,-63.9039,24.03,83,75,9.26,BR,1675620352
458,muncar,-8.4333,114.3333,24.53,84,100,3.46,ID,1675620908
459,pulandian,39.3953,121.9669,0.33,60,8,1.28,CN,1675620908
460,outram,1.2829,103.8379,25.04,93,75,1.54,MY,1675620909
461,chongwe,-15.3292,28.682,19.21,95,100,1.76,ZM,1675620910
462,yining,29.0361,114.5636,7.91,97,97,0.72,CN,1675620911
463,brae,60.3964,-1.353,6.78,79,100,9.67,GB,1675620912
464,tinde,-3.8833,33.2,20.11,74,49,2.83,TZ,1675620912
465,gornopravdinsk,60.05,69.9,-19.92,100,99,1.2,RU,1675620913
466,acapulco,16.8634,-99.8901,29.9,58,0,2.57,MX,1675620783
467,yulara,-25.2406,130.9889,20.95,23,0,4.1,AU,1675620914
468,mugumu,-1.85,34.7,17.93,62,73,0.52,TZ,1675620915
469,vila,42.0304,-8.1588,6.49,71,0,1.75,PT,1675620916
470,maravilha,-26.7608,-53.1725,28.78,44,100,2.16,BR,1675620916
471,pecangakan,-6.9302,109.1188,25.96,84,100,0.84,ID,1675620917
472,chernyshevskiy,63.0128,112.4714,-46.73,100,61,0.21,RU,1675620741
473,teguise,29.0605,-13.564,16.12,72,0,5.66,ES,1675620894
474,iskateley,67.6803,53.1512,-17.79,99,99,3.06,RU,1675620919
475,guadalupe y calvo,26.1,-106.9667,18.08,18,0,1.29,MX,1675620919
476,kudahuvadhoo,2.6708,72.8944,26.68,73,73,0.48,MV,1675620920
477,denpasar,-8.65,115.2167,24.84,83,75,5.14,ID,1675620921
478,sorong,-0.8833,131.25,24.74,92,100,2.53,ID,1675620759
479,makakilo city,21.3469,-158.0858,23.18,78,0,4.63,US,1675620922
480,mount isa,-20.7333,139.5,24.87,94,100,3.09,AU,1675620922
481,ishigaki,24.3448,124.1572,22.07,83,75,5.14,JP,1675620923
482,pokhara,28.2333,83.9833,13.13,56,21,2.21,NP,1675620908
483,pevek,69.7008,170.3133,-39.1,100,71,1.07,RU,1675620924
484,rawson,-43.3002,-65.1023,29.52,31,45,5.61,AR,1675620832
485,kurumkan,54.3,110.3,-21.62,93,34,1.88,RU,1675620925
486,lorengau,-2.0226,147.2712,27.16,79,100,1.6,PG,1675620649
487,ermelo,-26.5333,29.9833,15.33,76,75,2.1,ZA,1675620927
488,batagay-alyta,67.8006,130.4114,-32.0,99,100,0.65,RU,1675620744
489,passage west,51.8739,-8.3444,7.81,87,75,2.57,IE,1675620928
490,donskoye,45.4552,41.9741,-0.93,83,100,4.66,RU,1675620928
491,channel-port aux basques,47.5702,-59.1367,-5.84,73,100,10.67,CA,1675620929
492,kathmandu,27.7167,85.3167,11.58,72,20,1.03,NP,1675620653
493,davenda,53.5556,119.317,-26.5,99,64,1.92,RU,1675620930
494,okha,53.5739,142.9478,-19.62,95,100,4.44,RU,1675620931
495,sicuani,-14.2694,-71.2261,13.65,57,69,5.12,PE,1675620931
496,guerrero negro,27.9769,-114.0611,17.57,64,0,5.82,MX,1675620883
497,san pedro,14.35,121.0167,26.57,80,75,3.6,PH,1675620932
498,vao,-22.6667,167.4833,26.14,87,73,8.17,NC,1675620933
499,camana,-16.6228,-72.7111,25.17,77,88,2.72,PE,1675620934
500,nizhniy kuranakh,58.8353,125.4869,-28.12,99,100,1.59,RU,1675620768
501,haines junction,60.7522,-137.5108,-12.03,85,98,0.51,CA,1675620935
502,nouadhibou,20.931,-17.0347,21.99,33,100,7.2,MR,1675620935
503,novyy urengoy,66.0833,76.6333,-24.5,100,53,2.09,RU,1675620936
504,yukhnov,54.7444,35.2297,-4.06,94,100,2.89,RU,1675620936
505,pimentel,-6.8367,-79.9342,29.16,54,0,6.69,PE,1675620937
506,tumaco,1.7986,-78.8156,28.82,66,56,4.23,CO,1675620938
507,isangel,-19.55,169.2667,26.7,82,100,2.86,VU,1675620939
508,tieli,46.95,128.05,-27.46,100,87,1.2,CN,1675620940
509,gizo,-8.103,156.8419,25.86,93,100,8.25,SB,1675620940
510,saint paul,44.9444,-93.0933,-0.9,69,0,2.06,US,1675620847
511,egvekinot,66.3167,-179.1667,-29.81,87,100,5.01,RU,1675620941
512,faanui,-16.4833,-151.75,27.58,73,46,7.14,PF,1675620931
513,joao pinheiro,-17.7425,-46.1725,28.5,55,37,1.99,BR,1675620942
514,macusani,-14.0833,-70.4333,5.4,82,99,4.24,PE,1675620943
515,shitanjing,39.2342,106.3439,-3.46,32,100,1.62,CN,1675620944
516,la cruz,23.9167,-106.9,26.26,33,0,2.3,MX,1675620944
517,sakakah,29.9697,40.2064,14.76,33,98,3.56,SA,1675620945
518,kidal,18.4411,1.4078,26.71,11,4,0.36,ML,1675620946
519,riberalta,-10.9833,-66.1,29.11,70,75,3.09,BO,1675620946
520,dudinka,69.4058,86.1778,-17.99,99,97,1.03,RU,1675620947
521,matay,28.419,30.7792,14.04,28,20,3.64,EG,1675620948
522,maneadero,31.7167,-116.5667,15.61,71,0,0.45,MX,1675620948
523,grand forks,47.9417,-97.4337,-7.9,79,100,3.6,US,1675620949
524,banjar,-8.19,114.9675,25.09,87,100,2.89,ID,1675620950
525,charlottetown,46.2352,-63.1267,-3.12,89,100,6.17,CA,1675620951
526,verkhnyaya inta,65.9811,60.3094,-13.45,96,98,3.14,RU,1675620951
527,kloulklubed,7.0419,134.2556,26.28,77,100,8.6,PW,1675620952
528,nirmal,19.1,78.35,21.53,19,0,1.54,IN,1675620952
529,kamalia,30.7333,72.65,17.71,31,61,2.29,PK,1675620953
530,pahrump,36.2083,-115.9839,15.03,55,19,3.13,US,1675620795
531,sechura,-5.5569,-80.8222,29.37,53,77,5.94,PE,1675620954
532,vienenburg,51.95,10.5667,3.97,91,93,0.59,DE,1675620955
533,kahului,20.8947,-156.47,24.36,86,40,6.71,US,1675620956
534,bacungan,9.9106,118.7022,26.03,83,40,6.17,PH,1675620956
535,kumluca,36.3703,30.2869,7.76,80,98,2.06,TR,1675620957
536,chunhuhub,19.55,-88.6833,25.29,67,99,1.5,MX,1675620958
537,bandar-e lengeh,26.5579,54.8807,18.06,72,0,2.06,IR,1675620958
538,palmas de monte alto,-14.2672,-43.1619,34.23,28,0,2.94,BR,1675620959
539,parsabad,39.6482,47.9174,2.18,80,40,4.12,IR,1675620959
540,kanniyakumari,8.0833,77.5667,25.13,79,88,6.4,IN,1675620960
541,arrecife,28.963,-13.5477,17.99,72,0,5.66,ES,1675620960
542,dobric,44.7019,19.5814,-0.11,59,69,3.21,RS,1675620961
543,aksu,41.1231,80.2644,-5.4,82,39,2.18,CN,1675620962
544,muros,42.7762,-9.0603,13.24,59,0,2.8,ES,1675620964
545,swellendam,-34.0226,20.4417,21.66,82,98,3.61,ZA,1675620964
546,talavera de la reina,39.9635,-4.8308,8.97,50,0,2.34,ES,1675620965
547,kars,40.602,43.095,-7.75,93,75,1.03,TR,1675620966
548,madimba,-10.4,40.3333,26.55,81,99,2.08,TZ,1675620966
549,guaraniacu,-25.1008,-52.8781,27.14,42,75,2.27,BR,1675620716
550,rovaniemi,66.5,25.7167,-7.33,93,100,1.03,FI,1675620968
551,baghdad,33.3406,44.4009,11.95,58,0,2.06,IQ,1675620968
552,limbuhan,11.8838,124.0501,25.5,84,83,6.8,PH,1675620969
553,basoda,23.85,77.9333,18.44,34,0,1.21,IN,1675620970
554,husavik,66.0449,-17.3389,7.26,81,100,13.58,IS,1675620901
555,xiongzhou,25.1167,114.3,12.97,94,99,0.9,CN,1675620972
556,jijiga,9.35,42.8,17.16,47,54,3.52,ET,1675620972
557,leua,48.2156,18.6071,-3.36,77,19,2.31,SK,1675620973
558,sukumo,32.9333,132.7333,4.11,59,47,1.71,JP,1675620974
559,vikhorevka,56.1201,101.1636,-16.23,99,97,1.32,RU,1675620975
560,worland,44.0169,-107.9554,3.64,79,0,1.54,US,1675620976
561,sangar,63.9242,127.4739,-40.14,99,99,1.7,RU,1675620977
562,katastarion,37.8333,20.7667,6.97,53,75,5.66,GR,1675620978
563,craigieburn,-37.6,144.95,15.62,90,75,2.06,AU,1675620979
564,ranong,9.9658,98.6348,23.35,91,18,1.84,TH,1675620979
565,abashiri,44.0213,144.2697,-8.36,93,91,1.39,JP,1675620980
566,ixtapa,20.7,-105.2,24.57,65,0,3.09,MX,1675620981
567,pasni,25.2631,63.471,21.57,79,0,7.06,PK,1675620982
568,oksbol,55.6268,8.2876,3.84,86,57,7.34,DK,1675620983
569,micheweni,-4.9667,39.8333,26.86,77,10,5.48,TZ,1675620953
570,saint-pierre,-21.3393,55.4781,26.82,78,20,1.03,RE,1675620984
571,okhotsk,59.3833,143.3,-26.44,81,77,4.81,RU,1675620864
572,san policarpo,12.1791,125.5072,25.85,86,48,6.42,PH,1675620985
573,maun,-19.9833,23.4167,22.0,84,100,2.06,BW,1675620986
574,saint anthony,45.0205,-93.218,-1.25,69,0,4.12,US,1675620936
575,jalu,29.0331,21.5482,14.36,64,68,7.72,LY,1675620988
576,sisimiut,66.9395,-53.6735,-20.08,96,100,3.55,GL,1675620940
577,thunder bay,48.4001,-89.3168,-11.01,62,100,3.6,CA,1675620855
578,castro daire,40.8984,-7.9338,9.35,67,0,3.53,PT,1675620990
579,beachwood,41.4645,-81.5087,7.97,61,100,6.69,US,1675620990
580,leh,34.1667,77.5833,-13.51,55,100,0.14,IN,1675620991
581,annau,37.8876,58.516,5.72,81,59,2.06,TM,1675620992
582,artyom,40.4723,50.333,5.08,76,43,1.37,AZ,1675620993
583,methoni,36.8197,21.7049,6.92,61,71,8.5,GR,1675620993
584,manga,11.6636,-1.0731,31.85,11,100,2.74,BF,1675620994
585,hauterive,46.0901,3.4459,6.42,86,97,4.66,FR,1675620994
586,laramie,41.3114,-105.5911,6.64,33,0,11.32,US,1675620710
587,tomatlan,19.9333,-105.25,31.74,29,13,2.97,MX,1675620996
588,valdivia,-39.8142,-73.2459,27.05,42,8,2.42,CL,1675620791
